name,is_closed,url,review_count,categories,rating,latitude,longitude,price,address1,city,country,state,distance,price_numeric
Restaurante Diamond,False,https://www.yelp.com/biz/restaurante-diamond-rio-branco?adjust_creative=CBM7ZjWiczNoE0SNVf88LA&utm_campaign=yelp_api_v3&utm_medium=api_v3_business_search&utm_source=CBM7ZjWiczNoE0SNVf88LA,1,"International, Fast Food, Buffets",5.0,-9.97140282358207,-67.8116656467319,$$,Best Western,Rio Branco,BR,AC,2693.24,2.0
Pizzaria e Sorveteria Tutti Frutti,False,https://www.yelp.com/biz/pizzaria-e-sorveteria-tutti-frutti-rio-branco?adjust_creative=CBM7ZjWiczNoE0SNVf88LA&utm_campaign=yelp_api_v3&utm_medium=api_v3_business_search&utm_source=CBM7ZjWiczNoE0SNVf88LA,1,Italian,4.0,-9.9710699,-67.8095195,$$,Av Ceará 1408,Rio Branco,BR,AC,2902.96,2.0
Pinguim,False,https://www.yelp.com/biz/pinguim-rio-branco?adjust_creative=CBM7ZjWiczNoE0SNVf88LA&utm_campaign=yelp_api_v3&utm_medium=api_v3_business_search&utm_source=CBM7ZjWiczNoE0SNVf88LA,1,"Pizza, Ice Cream & Frozen Yogurt",4.0,-9.97029562238582,-67.8165201097727,,"Av. Ceará, 1998",Rio Branco,BR,AC,2390.7,
Cantinho Pizzaria,False,https://www.yelp.com/biz/cantinho-pizzaria-rio-branco?adjust_creative=CBM7ZjWiczNoE0SNVf88LA&utm_campaign=yelp_api_v3&utm_medium=api_v3_business_search&utm_source=CBM7ZjWiczNoE0SNVf88LA,1,Pizza,4.0,-9.9635658,-67.8284988,,R. Isaura Parente 1642,Rio Branco,BR,AC,2532.37,
Malungo café,False,https://www.yelp.com/biz/malungo-caf%C3%A9-maracana%C3%BA?adjust_creative=CBM7ZjWiczNoE0SNVf88LA&utm_campaign=yelp_api_v3&utm_medium=api_v3_business_search&utm_source=CBM7ZjWiczNoE0SNVf88LA,1,Restaurants,4.0,-3.8748198,-38.5833321,,"Rua Sete de Setembro, 454, Boa Vista (Espaço Rio Branco)",Fortaleza,BR,CE,2694.54,
Saladaria,False,https://www.yelp.com/biz/saladaria-rio-branco?adjust_creative=CBM7ZjWiczNoE0SNVf88LA&utm_campaign=yelp_api_v3&utm_medium=api_v3_business_search&utm_source=CBM7ZjWiczNoE0SNVf88LA,1,"Juice Bars & Smoothies, Salad, Bistros",4.0,-9.96078866105721,-67.813759110868,$$,"Rua Futuro, 176",Rio Branco,BR,AC,3416.31,2.0
Café do Mercado,False,https://www.yelp.com/biz/caf%C3%A9-do-mercado-rio-branco?adjust_creative=CBM7ZjWiczNoE0SNVf88LA&utm_campaign=yelp_api_v3&utm_medium=api_v3_business_search&utm_source=CBM7ZjWiczNoE0SNVf88LA,2,Diners,3.5,-9.97371006011963,-67.8077011108398,,Tv. Capitania 1 c 900,Rio Branco,BR,AC,2694.54,
Don Juan,False,https://www.yelp.com/biz/don-juan-rio-branco?adjust_creative=CBM7ZjWiczNoE0SNVf88LA&utm_campaign=yelp_api_v3&utm_medium=api_v3_business_search&utm_source=CBM7ZjWiczNoE0SNVf88LA,1,Burgers,4.0,-9.96547184003657,-67.8095899522304,,Praça José Augusto,Rio Branco,BR,AC,3301.99,
Guia do Sabor Pizzaria,False,https://www.yelp.com/biz/guia-do-sabor-pizzaria-rio-branco?adjust_creative=CBM7ZjWiczNoE0SNVf88LA&utm_campaign=yelp_api_v3&utm_medium=api_v3_business_search&utm_source=CBM7ZjWiczNoE0SNVf88LA,2,"Italian, Pizza",2.0,-9.9616035,-67.8351663,$$,"R. Isaura Parente, 2420",Rio Branco,BR,AC,2797.33,2.0
Restaurante A Princezinha,False,https://www.yelp.com/biz/restaurante-a-princezinha-rio-branco?adjust_creative=CBM7ZjWiczNoE0SNVf88LA&utm_campaign=yelp_api_v3&utm_medium=api_v3_business_search&utm_source=CBM7ZjWiczNoE0SNVf88LA,2,"Pizza, Brazilian",2.0,-9.97548395458124,-67.810697819539,$$,"Travessa da Catedral, 14",Rio Branco,BR,AC,2530.48,2.0
Restaurante e Churrascaria Cleovan,False,https://www.yelp.com/biz/restaurante-e-churrascaria-cleovan-rio-branco?adjust_creative=CBM7ZjWiczNoE0SNVf88LA&utm_campaign=yelp_api_v3&utm_medium=api_v3_business_search&utm_source=CBM7ZjWiczNoE0SNVf88LA,1,Restaurants,3.0,-9.9663914,-67.8146753,,Rua Hugo Carneiro 234,Rio Branco,BR,AC,2853.14,
Mister Grill,False,https://www.yelp.com/biz/mister-grill-macei%C3%B3?adjust_creative=CBM7ZjWiczNoE0SNVf88LA&utm_campaign=yelp_api_v3&utm_medium=api_v3_business_search&utm_source=CBM7ZjWiczNoE0SNVf88LA,1,Steakhouses,4.0,-9.6167498,-35.7200317,$$,Av. Muniz Falcão 264,Maceió,BR,AL,7987.76,2.0
Lopana,False,https://www.yelp.com/biz/lopana-macei%C3%B3-2?adjust_creative=CBM7ZjWiczNoE0SNVf88LA&utm_campaign=yelp_api_v3&utm_medium=api_v3_business_search&utm_source=CBM7ZjWiczNoE0SNVf88LA,4,"Bars, Brazilian",4.0,-9.663814,-35.70395,$$,"Av. Sílvio Carlos Vianna, 27",Maceió,BR,AL,8004.5,2.0
Akuaba,False,https://www.yelp.com/biz/akuaba-macei%C3%B3-al?adjust_creative=CBM7ZjWiczNoE0SNVf88LA&utm_campaign=yelp_api_v3&utm_medium=api_v3_business_search&utm_source=CBM7ZjWiczNoE0SNVf88LA,2,"Seafood, Northeastern Brazilian",4.5,-9.6452114,-35.7016016,,"R. Ferroviário Manoel Gonçalves Filho, 6",Maceió,BR,AL,5940.12,
Wanchako,False,https://www.yelp.com/biz/wanchako-macei%C3%B3-2?adjust_creative=CBM7ZjWiczNoE0SNVf88LA&utm_campaign=yelp_api_v3&utm_medium=api_v3_business_search&utm_source=CBM7ZjWiczNoE0SNVf88LA,5,Peruvian,5.0,-9.65504909400796,-35.6993597746228,$$$$,"R. São Francisco de Assis, 93",Maceió,BR,AL,6941.98,4.0
Akuaba,False,https://www.yelp.com/biz/akuaba-macei%C3%B3?adjust_creative=CBM7ZjWiczNoE0SNVf88LA&utm_campaign=yelp_api_v3&utm_medium=api_v3_business_search&utm_source=CBM7ZjWiczNoE0SNVf88LA,2,French,4.5,-9.6450901,-35.7103004,$$$,"Av. Álvaro Calheiros, Mangabeiras 09",Maceió,BR,AL,6242.7,3.0
Restaurante Janga,False,https://www.yelp.com/biz/restaurante-janga-macei%C3%B3?adjust_creative=CBM7ZjWiczNoE0SNVf88LA&utm_campaign=yelp_api_v3&utm_medium=api_v3_business_search&utm_source=CBM7ZjWiczNoE0SNVf88LA,3,Seafood,4.5,-9.661993,-35.697453,,"R. Gen. João Saleiro Pitão, 1296",Maceió,BR,AL,7663.33,
Casa de Mãinha,False,https://www.yelp.com/biz/casa-de-m%C3%A3inha-macei%C3%B3?adjust_creative=CBM7ZjWiczNoE0SNVf88LA&utm_campaign=yelp_api_v3&utm_medium=api_v3_business_search&utm_source=CBM7ZjWiczNoE0SNVf88LA,2,"Northeastern Brazilian, Buffets",5.0,-9.66356061451105,-35.7087226957083,,"R. Engenheiro Demócrito Sarmento Barroco, 80",Maceió,BR,AL,8119.56,
Imperador dos Camarões,False,https://www.yelp.com/biz/imperador-dos-camar%C3%B5es-macei%C3%B3?adjust_creative=CBM7ZjWiczNoE0SNVf88LA&utm_campaign=yelp_api_v3&utm_medium=api_v3_business_search&utm_source=CBM7ZjWiczNoE0SNVf88LA,6,"Northeastern Brazilian, Seafood",4.5,-9.6685423,-35.7142078,$$$$,"Av. Dr. Antônio Gouveia, 607",Maceió,BR,AL,8841.47,4.0
Santo Orégano,False,https://www.yelp.com/biz/santo-or%C3%A9gano-macei%C3%B3?adjust_creative=CBM7ZjWiczNoE0SNVf88LA&utm_campaign=yelp_api_v3&utm_medium=api_v3_business_search&utm_source=CBM7ZjWiczNoE0SNVf88LA,2,Pizza,4.5,-9.58009122666007,-35.6584697011345,,"Rodovia AL, 101",Maceió,BR,AL,3423.81,
Massarella,False,https://www.yelp.com/biz/massarella-macei%C3%B3?adjust_creative=CBM7ZjWiczNoE0SNVf88LA&utm_campaign=yelp_api_v3&utm_medium=api_v3_business_search&utm_source=CBM7ZjWiczNoE0SNVf88LA,4,"Brazilian, Pizza",4.5,-9.6505043,-35.70161,$$,"R. José Pontes Magalhães, 271",Maceió,BR,AL,6473.2,2.0
Armazém Guimarães,False,https://www.yelp.com/biz/armaz%C3%A9m-guimar%C3%A3es-macei%C3%B3-2?adjust_creative=CBM7ZjWiczNoE0SNVf88LA&utm_campaign=yelp_api_v3&utm_medium=api_v3_business_search&utm_source=CBM7ZjWiczNoE0SNVf88LA,7,"Italian, Pizza",4.5,-9.650901,-35.701217,$$,"Av. Dr. Antônio Gomes Barros, 188",Maceió,BR,AL,6538.99,2.0
Divina Gula,False,https://www.yelp.com/biz/divina-gula-macei%C3%B3?adjust_creative=CBM7ZjWiczNoE0SNVf88LA&utm_campaign=yelp_api_v3&utm_medium=api_v3_business_search&utm_source=CBM7ZjWiczNoE0SNVf88LA,2,Restaurants,4.5,-9.64641696433671,-35.7050001493351,$$$,av Eng Paulo Brandão Nogueira 85,Maceió,BR,AL,6181.87,3.0
Bodega do Sertão,False,https://www.yelp.com/biz/bodega-do-sert%C3%A3o-macei%C3%B3?adjust_creative=CBM7ZjWiczNoE0SNVf88LA&utm_campaign=yelp_api_v3&utm_medium=api_v3_business_search&utm_source=CBM7ZjWiczNoE0SNVf88LA,4,Brazilian,4.5,-9.65321759842571,-35.6995966398721,,"Av Júlio Marques Luz, 62",Maceió,BR,AL,6748.34,
Arrí Forneria,False,https://www.yelp.com/biz/arr%C3%AD-forneria-macei%C3%B3?adjust_creative=CBM7ZjWiczNoE0SNVf88LA&utm_campaign=yelp_api_v3&utm_medium=api_v3_business_search&utm_source=CBM7ZjWiczNoE0SNVf88LA,3,Tapas Bars,4.5,-9.6417614073698,-35.700622747013,,Rua Doutor Roland Simons 492-614,Maceió,BR,AL,5541.8,
Massagueirinha,False,https://www.yelp.com/biz/massagueirinha-macei%C3%B3-2?adjust_creative=CBM7ZjWiczNoE0SNVf88LA&utm_campaign=yelp_api_v3&utm_medium=api_v3_business_search&utm_source=CBM7ZjWiczNoE0SNVf88LA,5,"Bars, Seafood",4.0,-9.65677586293796,-35.7087407624071,$$,"R. Deputado José Lages, 1105",Maceió,BR,AL,7404.52,2.0
Hibiscus,False,https://www.yelp.com/biz/hibiscus-macei%C3%B3?adjust_creative=CBM7ZjWiczNoE0SNVf88LA&utm_campaign=yelp_api_v3&utm_medium=api_v3_business_search&utm_source=CBM7ZjWiczNoE0SNVf88LA,2,Brazilian,5.0,-9.56468053565792,-35.6453086710175,$$$$,"AL 101 Norte, Residencial Angra de Ipioca",Maceió,BR,AL,5553.99,4.0
Parmegianno,False,https://www.yelp.com/biz/parmegianno-macei%C3%B3?adjust_creative=CBM7ZjWiczNoE0SNVf88LA&utm_campaign=yelp_api_v3&utm_medium=api_v3_business_search&utm_source=CBM7ZjWiczNoE0SNVf88LA,5,Restaurants,3.0,-9.6447382,-35.7003746,,R. José Luiz Calazans 44,Maceió,BR,AL,5870.37,
Le Premier,False,https://www.yelp.com/biz/le-premier-macei%C3%B3?adjust_creative=CBM7ZjWiczNoE0SNVf88LA&utm_campaign=yelp_api_v3&utm_medium=api_v3_business_search&utm_source=CBM7ZjWiczNoE0SNVf88LA,1,"Brazilian, International",5.0,-9.666354,-35.712538,,Best Western PREMIER,Maceió,BR,AL,8547.41,
Kanoa,False,https://www.yelp.com/biz/kanoa-macei%C3%B3?adjust_creative=CBM7ZjWiczNoE0SNVf88LA&utm_campaign=yelp_api_v3&utm_medium=api_v3_business_search&utm_source=CBM7ZjWiczNoE0SNVf88LA,1,"Brazilian, Beach Bars",5.0,-9.6638435384008,-35.705786,,"Av. Senador Robert Kennedy, 226",Maceió,BR,AL,8058.54,
New Hakata,False,https://www.yelp.com/biz/new-hakata-macei%C3%B3?adjust_creative=CBM7ZjWiczNoE0SNVf88LA&utm_campaign=yelp_api_v3&utm_medium=api_v3_business_search&utm_source=CBM7ZjWiczNoE0SNVf88LA,3,"Chinese, Japanese",4.0,-9.6485052,-35.705616,$$,"Av. Engenheiro Paulo Brandão Nogueira, 95",Maceió,BR,AL,6336.08,2.0
Anamá Restaurante,False,https://www.yelp.com/biz/anam%C3%A1-restaurante-macei%C3%B3?adjust_creative=CBM7ZjWiczNoE0SNVf88LA&utm_campaign=yelp_api_v3&utm_medium=api_v3_business_search&utm_source=CBM7ZjWiczNoE0SNVf88LA,2,"Buffets, Delis",3.0,-9.664085427878,-35.6986348782352,,"Avenida Silvio Carlos Vianna, 2501.",Maceió,BR,AL,7914.13,
Massarela,False,https://www.yelp.com/biz/massarela-macei%C3%B3?adjust_creative=CBM7ZjWiczNoE0SNVf88LA&utm_campaign=yelp_api_v3&utm_medium=api_v3_business_search&utm_source=CBM7ZjWiczNoE0SNVf88LA,3,Restaurants,4.0,-9.6510663,-35.7014958,$$$$,R. José Pontes de Magalhães 155,Maceió,BR,AL,6564.46,4.0
Filé do Zezé,False,https://www.yelp.com/biz/fil%C3%A9-do-zez%C3%A9-macei%C3%B3?adjust_creative=CBM7ZjWiczNoE0SNVf88LA&utm_campaign=yelp_api_v3&utm_medium=api_v3_business_search&utm_source=CBM7ZjWiczNoE0SNVf88LA,2,"Pizza, Northeastern Brazilian, Beer Bar",3.0,-9.649322,-35.702567,$$,"R. Industrial Climerio Sarmento, 15",Maceió,BR,AL,6408.56,2.0
Restaurante Picuí,False,https://www.yelp.com/biz/restaurante-picu%C3%AD-macei%C3%B3?adjust_creative=CBM7ZjWiczNoE0SNVf88LA&utm_campaign=yelp_api_v3&utm_medium=api_v3_business_search&utm_source=CBM7ZjWiczNoE0SNVf88LA,1,"Brazilian, Steakhouses",4.0,-9.66980200352107,-35.7293633770158,,"Av. Paz, 1140",Maceió,BR,AL,9662.8,
Nirá Sushi,False,https://www.yelp.com/biz/nir%C3%A1-sushi-macei%C3%B3?adjust_creative=CBM7ZjWiczNoE0SNVf88LA&utm_campaign=yelp_api_v3&utm_medium=api_v3_business_search&utm_source=CBM7ZjWiczNoE0SNVf88LA,2,Restaurants,5.0,-9.6662515,-35.7350983,$$$,Rua Olavo Macedo Ribeiro 320 Qu13,Maceió,BR,AL,9653.49,3.0
Bar Brasil,False,https://www.yelp.com/biz/bar-brasil-macei%C3%B3?adjust_creative=CBM7ZjWiczNoE0SNVf88LA&utm_campaign=yelp_api_v3&utm_medium=api_v3_business_search&utm_source=CBM7ZjWiczNoE0SNVf88LA,1,"Restaurants, Bars",3.0,-9.593499,-35.6705622,,"Rua da Praia, 72",Maceió,BR,AL,1732.31,
Milk,False,https://www.yelp.com/biz/milk-macei%C3%B3?adjust_creative=CBM7ZjWiczNoE0SNVf88LA&utm_campaign=yelp_api_v3&utm_medium=api_v3_business_search&utm_source=CBM7ZjWiczNoE0SNVf88LA,1,"Brazilian, Pubs",2.0,-9.586044,-35.664426,,"R. São Pedro, 194",Maceió,BR,AL,2560.02,
Restaurante Dragão,False,https://www.yelp.com/biz/restaurante-drag%C3%A3o-macei%C3%B3?adjust_creative=CBM7ZjWiczNoE0SNVf88LA&utm_campaign=yelp_api_v3&utm_medium=api_v3_business_search&utm_source=CBM7ZjWiczNoE0SNVf88LA,2,Restaurants,3.0,-9.6702194,-35.7158999,$$,Av. Dr Antonio Gouveia 21,Maceió,BR,AL,9078.29,2.0
Forneto Pizzaria,False,https://www.yelp.com/biz/forneto-pizzaria-macei%C3%B3?adjust_creative=CBM7ZjWiczNoE0SNVf88LA&utm_campaign=yelp_api_v3&utm_medium=api_v3_business_search&utm_source=CBM7ZjWiczNoE0SNVf88LA,1,Pizza,5.0,-9.636988,-35.737356,,"R. Coronel Lima Rocha, 841",Maceió,BR,AL,7359.74,
Ótimo,False,https://www.yelp.com/biz/%C3%B3timo-macei%C3%B3?adjust_creative=CBM7ZjWiczNoE0SNVf88LA&utm_campaign=yelp_api_v3&utm_medium=api_v3_business_search&utm_source=CBM7ZjWiczNoE0SNVf88LA,1,Restaurants,5.0,-9.66651,-35.735,,,Maceió,BR,AL,9653.49,
Restaurante O Peixarão,False,https://www.yelp.com/biz/restaurante-o-peixar%C3%A3o-macei%C3%B3?adjust_creative=CBM7ZjWiczNoE0SNVf88LA&utm_campaign=yelp_api_v3&utm_medium=api_v3_business_search&utm_source=CBM7ZjWiczNoE0SNVf88LA,3,Brazilian,4.5,-9.65334626056131,-35.6994898258206,,"Av.Júlio M.Luz, 50",Maceió,BR,AL,6759.8,
Grão Espresso Cafeteria  Hiper Gbarbosa,False,https://www.yelp.com/biz/gr%C3%A3o-espresso-cafeteria-hiper-gbarbosa-macei%C3%B3?adjust_creative=CBM7ZjWiczNoE0SNVf88LA&utm_campaign=yelp_api_v3&utm_medium=api_v3_business_search&utm_source=CBM7ZjWiczNoE0SNVf88LA,1,"Coffee & Tea, Cafes, Fast Food",5.0,-9.6490748,-35.7072404,,Av. Emp. Carlos da Silva Nogueira  620,Maceió,BR,AL,6543.36,
Marios Burgers,False,https://www.yelp.com/biz/marios-burgers-macei%C3%B3?adjust_creative=CBM7ZjWiczNoE0SNVf88LA&utm_campaign=yelp_api_v3&utm_medium=api_v3_business_search&utm_source=CBM7ZjWiczNoE0SNVf88LA,1,"Sandwiches, Burgers",4.0,-9.62672454115253,-35.7334437909979,,"Av. Rotary, 889",Maceió,BR,AL,6319.28,
Sueca Comedoria,False,https://www.yelp.com/biz/sueca-comedoria-macei%C3%B3?adjust_creative=CBM7ZjWiczNoE0SNVf88LA&utm_campaign=yelp_api_v3&utm_medium=api_v3_business_search&utm_source=CBM7ZjWiczNoE0SNVf88LA,1,Restaurants,4.0,-9.6658802,-35.7111588,,Av. Doutor Antônio Gouveia 1103,Maceió,BR,AL,8668.04,
Sabatelli Pizza & Arte,False,https://www.yelp.com/biz/sabatelli-pizza-e-arte-macei%C3%B3?adjust_creative=CBM7ZjWiczNoE0SNVf88LA&utm_campaign=yelp_api_v3&utm_medium=api_v3_business_search&utm_source=CBM7ZjWiczNoE0SNVf88LA,1,"Pizza, Italian",4.0,-9.591866,-35.73742,,"R. José Alfredo Marques, 663",Maceió,BR,AL,5603.49,
Mostardas Hamburgueria,False,https://www.yelp.com/biz/mostardas-hamburgueria-macei%C3%B3?adjust_creative=CBM7ZjWiczNoE0SNVf88LA&utm_campaign=yelp_api_v3&utm_medium=api_v3_business_search&utm_source=CBM7ZjWiczNoE0SNVf88LA,2,"Juice Bars & Smoothies, Burgers, Sandwiches",4.0,-9.6430397,-35.6993103,$,"Av. Álvaro Otacílio, 4187",Maceió,BR,AL,5598.73,1.0
Don Burguer Hamburgueria Goumert,False,https://www.yelp.com/biz/don-burguer-hamburgueria-goumert-macei%C3%B3?adjust_creative=CBM7ZjWiczNoE0SNVf88LA&utm_campaign=yelp_api_v3&utm_medium=api_v3_business_search&utm_source=CBM7ZjWiczNoE0SNVf88LA,1,Diners,4.0,-9.6638002,-35.7055817,$$,Av. Silvio Carlos Viana,Maceió,BR,AL,7945.52,2.0
Palato Café,False,https://www.yelp.com/biz/palato-caf%C3%A9-macei%C3%B3?adjust_creative=CBM7ZjWiczNoE0SNVf88LA&utm_campaign=yelp_api_v3&utm_medium=api_v3_business_search&utm_source=CBM7ZjWiczNoE0SNVf88LA,2,"Bistros, Cafes",2.5,-9.65657638960183,-35.7053164969836,$$$,"R. Deputado José Lages, 700",Maceió,BR,AL,7267.46,3.0
Palato,False,https://www.yelp.com/biz/palato-macei%C3%B3-2?adjust_creative=CBM7ZjWiczNoE0SNVf88LA&utm_campaign=yelp_api_v3&utm_medium=api_v3_business_search&utm_source=CBM7ZjWiczNoE0SNVf88LA,3,"Delicatessen, Grocery, Japanese",3.5,-9.645732,-35.733748,$$,"Av. Fernandes Lima, 548",Maceió,BR,AL,7755.62,2.0
Restaurante Ocara,False,https://www.yelp.com/biz/restaurante-ocara-macei%C3%B3?adjust_creative=CBM7ZjWiczNoE0SNVf88LA&utm_campaign=yelp_api_v3&utm_medium=api_v3_business_search&utm_source=CBM7ZjWiczNoE0SNVf88LA,1,Seafood,5.0,-9.528586,-35.607876,,"R. da Igreja, 158",Maceió,BR,AL,11263.9,
Bendita Massa,False,https://www.yelp.com/biz/bendita-massa-macei%C3%B3?adjust_creative=CBM7ZjWiczNoE0SNVf88LA&utm_campaign=yelp_api_v3&utm_medium=api_v3_business_search&utm_source=CBM7ZjWiczNoE0SNVf88LA,1,Italian,5.0,-9.66651,-35.735,,,Maceió,BR,AL,9653.49,
Super Pizza,False,https://www.yelp.com/biz/super-pizza-macei%C3%B3?adjust_creative=CBM7ZjWiczNoE0SNVf88LA&utm_campaign=yelp_api_v3&utm_medium=api_v3_business_search&utm_source=CBM7ZjWiczNoE0SNVf88LA,1,Pizza,5.0,-9.66651,-35.735,,,Maceió,BR,AL,9653.49,
Take,False,https://www.yelp.com/biz/take-macei%C3%B3?adjust_creative=CBM7ZjWiczNoE0SNVf88LA&utm_campaign=yelp_api_v3&utm_medium=api_v3_business_search&utm_source=CBM7ZjWiczNoE0SNVf88LA,2,Japanese,5.0,-9.66651,-35.735,,,Maceió,BR,AL,9653.49,
Sushi Maki,False,https://www.yelp.com/biz/sushi-maki-macei%C3%B3?adjust_creative=CBM7ZjWiczNoE0SNVf88LA&utm_campaign=yelp_api_v3&utm_medium=api_v3_business_search&utm_source=CBM7ZjWiczNoE0SNVf88LA,1,"Sushi Bars, Japanese",4.0,-9.6641293,-35.69627,$$,"R. Desportista Humberto Guimarães, 541",Maceió,BR,AL,7832.93,2.0
Galeteria do Chef,False,https://www.yelp.com/biz/galeteria-do-chef-macei%C3%B3?adjust_creative=CBM7ZjWiczNoE0SNVf88LA&utm_campaign=yelp_api_v3&utm_medium=api_v3_business_search&utm_source=CBM7ZjWiczNoE0SNVf88LA,1,Restaurants,3.0,-9.6101265,-35.7254295,,Av. Presidente Getúlio Vargas 19,Maceió,BR,AL,4407.64,
Carlito Pizzaria e Restaurante,False,https://www.yelp.com/biz/carlito-pizzaria-e-restaurante-macei%C3%B3?adjust_creative=CBM7ZjWiczNoE0SNVf88LA&utm_campaign=yelp_api_v3&utm_medium=api_v3_business_search&utm_source=CBM7ZjWiczNoE0SNVf88LA,3,Pizza,3.5,-9.66289737334599,-35.6957703323422,,"Av. Álvaro Otacílio, 2740",Maceió,BR,AL,7735.86,
Chino Pop,False,https://www.yelp.com/biz/chino-pop-macei%C3%B3?adjust_creative=CBM7ZjWiczNoE0SNVf88LA&utm_campaign=yelp_api_v3&utm_medium=api_v3_business_search&utm_source=CBM7ZjWiczNoE0SNVf88LA,1,Chinese,3.0,-9.6502812523959,-35.7068239577895,,"Av Pretestato Ferreira Machado, 630",Maceió,BR,AL,6653.66,
Bon Grillê,False,https://www.yelp.com/biz/bon-grill%C3%AA-macei%C3%B3?adjust_creative=CBM7ZjWiczNoE0SNVf88LA&utm_campaign=yelp_api_v3&utm_medium=api_v3_business_search&utm_source=CBM7ZjWiczNoE0SNVf88LA,2,Restaurants,5.0,-9.66651,-35.735,$,,Maceió,BR,AL,9653.49,1.0
Café Ponta Verde,False,https://www.yelp.com/biz/caf%C3%A9-ponta-verde-macei%C3%B3?adjust_creative=CBM7ZjWiczNoE0SNVf88LA&utm_campaign=yelp_api_v3&utm_medium=api_v3_business_search&utm_source=CBM7ZjWiczNoE0SNVf88LA,1,"Diners, Cafes",3.0,-9.66231587877817,-35.7014783844352,,"R. Engenheiro Mário de Gusmão, 768",Maceió,BR,AL,7780.72,
Casa da Picanha,False,https://www.yelp.com/biz/casa-da-picanha-macei%C3%B3?adjust_creative=CBM7ZjWiczNoE0SNVf88LA&utm_campaign=yelp_api_v3&utm_medium=api_v3_business_search&utm_source=CBM7ZjWiczNoE0SNVf88LA,2,Restaurants,2.5,-9.6514254,-35.7099228,,Av. Doutor Antônio Gomes de Barros 702,Maceió,BR,AL,6883.54,
Observatório,False,https://www.yelp.com/biz/observat%C3%B3rio-macei%C3%B3?adjust_creative=CBM7ZjWiczNoE0SNVf88LA&utm_campaign=yelp_api_v3&utm_medium=api_v3_business_search&utm_source=CBM7ZjWiczNoE0SNVf88LA,1,"Bars, Mexican",2.0,-9.6512616,-35.7080347,$$,"Av. Doutor Antônio Gomes de Barros, 930",Maceió,BR,AL,6801.62,2.0
Bobs,False,https://www.yelp.com/biz/bobs-macei%C3%B3?adjust_creative=CBM7ZjWiczNoE0SNVf88LA&utm_campaign=yelp_api_v3&utm_medium=api_v3_business_search&utm_source=CBM7ZjWiczNoE0SNVf88LA,1,Fast Food,5.0,-9.66651,-35.735,,,Maceió,BR,AL,9653.49,
Don Pastello,False,https://www.yelp.com/biz/don-pastello-macei%C3%B3?adjust_creative=CBM7ZjWiczNoE0SNVf88LA&utm_campaign=yelp_api_v3&utm_medium=api_v3_business_search&utm_source=CBM7ZjWiczNoE0SNVf88LA,1,Fast Food,5.0,-9.66651,-35.735,,,Maceió,BR,AL,9653.49,
Restaurante Candelabro,False,https://www.yelp.com/biz/restaurante-candelabro-macei%C3%B3?adjust_creative=CBM7ZjWiczNoE0SNVf88LA&utm_campaign=yelp_api_v3&utm_medium=api_v3_business_search&utm_source=CBM7ZjWiczNoE0SNVf88LA,1,Restaurants,3.0,-9.6700917,-35.7388282,,"Av. Duque de Caixas, 21",Maceió,BR,AL,10235.96,
Pizza Americana,False,https://www.yelp.com/biz/pizza-americana-macei%C3%B3?adjust_creative=CBM7ZjWiczNoE0SNVf88LA&utm_campaign=yelp_api_v3&utm_medium=api_v3_business_search&utm_source=CBM7ZjWiczNoE0SNVf88LA,1,Pizza,1.0,-9.61080834661259,-35.7261412963271,,"Av. Presidente Getúlio Vargas, 455",Maceió,BR,AL,4747.76,
China in Box,False,https://www.yelp.com/biz/china-in-box-macei%C3%B3?adjust_creative=CBM7ZjWiczNoE0SNVf88LA&utm_campaign=yelp_api_v3&utm_medium=api_v3_business_search&utm_source=CBM7ZjWiczNoE0SNVf88LA,2,Chinese,4.0,-9.66651,-35.735,$$,,Maceió,BR,AL,9653.49,2.0
McDonalds,False,https://www.yelp.com/biz/mcdonalds-macei%C3%B3?adjust_creative=CBM7ZjWiczNoE0SNVf88LA&utm_campaign=yelp_api_v3&utm_medium=api_v3_business_search&utm_source=CBM7ZjWiczNoE0SNVf88LA,1,Fast Food,5.0,-9.66651,-35.735,,,Maceió,BR,AL,9653.49,
Domino's,False,https://www.yelp.com/biz/dominos-macei%C3%B3?adjust_creative=CBM7ZjWiczNoE0SNVf88LA&utm_campaign=yelp_api_v3&utm_medium=api_v3_business_search&utm_source=CBM7ZjWiczNoE0SNVf88LA,1,Pizza,1.0,-9.651458,-35.705658,,"Av. Doutor Antônio Gomes de Barros, 505",Maceió,BR,AL,6735.74,
Sarah's Esfihas,False,https://www.yelp.com/biz/sarahs-esfihas-macei%C3%B3?adjust_creative=CBM7ZjWiczNoE0SNVf88LA&utm_campaign=yelp_api_v3&utm_medium=api_v3_business_search&utm_source=CBM7ZjWiczNoE0SNVf88LA,1,Fast Food,5.0,-9.66651,-35.735,$,,Maceió,BR,AL,9653.49,1.0
Barrica's,False,https://www.yelp.com/biz/barricas-macei%C3%B3?adjust_creative=CBM7ZjWiczNoE0SNVf88LA&utm_campaign=yelp_api_v3&utm_medium=api_v3_business_search&utm_source=CBM7ZjWiczNoE0SNVf88LA,1,"Bars, Brazilian",3.0,-9.65846286457411,-35.6982102473396,$$,"Av. Álvaro Otacílio, 39",Maceió,BR,AL,7290.38,2.0
Max Pizzaria,False,https://www.yelp.com/biz/max-pizzaria-macei%C3%B3?adjust_creative=CBM7ZjWiczNoE0SNVf88LA&utm_campaign=yelp_api_v3&utm_medium=api_v3_business_search&utm_source=CBM7ZjWiczNoE0SNVf88LA,1,Pizza,1.0,-9.6295881,-35.737793,,Av. Fernandes Lima 2364 A,Maceió,BR,AL,6857.96,
JC Lanches,False,https://www.yelp.com/biz/jc-lanches-macei%C3%B3?adjust_creative=CBM7ZjWiczNoE0SNVf88LA&utm_campaign=yelp_api_v3&utm_medium=api_v3_business_search&utm_source=CBM7ZjWiczNoE0SNVf88LA,1,"Food Stands, Sandwiches",3.0,-9.66110523002839,-35.7012556105896,,R. Gen. João Saleiro Pitão,Maceió,BR,AL,7643.99,
Manjericão Restaurante-Cafeteria,False,https://www.yelp.com/biz/manjeric%C3%A3o-restaurante-cafeteria-macei%C3%B3?adjust_creative=CBM7ZjWiczNoE0SNVf88LA&utm_campaign=yelp_api_v3&utm_medium=api_v3_business_search&utm_source=CBM7ZjWiczNoE0SNVf88LA,1,Restaurants,3.0,-9.6566311,-35.7054032,,Rua Dep José Lages 545,Maceió,BR,AL,7276.01,
Creperia flor das águas,False,https://www.yelp.com/biz/creperia-flor-das-%C3%A1guas-macei%C3%B3?adjust_creative=CBM7ZjWiczNoE0SNVf88LA&utm_campaign=yelp_api_v3&utm_medium=api_v3_business_search&utm_source=CBM7ZjWiczNoE0SNVf88LA,1,Creperies,5.0,-9.66651,-35.735,,,Maceió,BR,AL,9653.49,
Boteco do Mar,False,https://www.yelp.com/biz/boteco-do-mar-macei%C3%B3?adjust_creative=CBM7ZjWiczNoE0SNVf88LA&utm_campaign=yelp_api_v3&utm_medium=api_v3_business_search&utm_source=CBM7ZjWiczNoE0SNVf88LA,1,"Seafood, Northeastern Brazilian",2.0,-9.65809279921137,-35.7050242647529,,"R. Manoel Ribeiro da Rocha, 78",Maceió,BR,AL,7420.29,
Pizzaria Papito,False,https://www.yelp.com/biz/pizzaria-papito-macei%C3%B3?adjust_creative=CBM7ZjWiczNoE0SNVf88LA&utm_campaign=yelp_api_v3&utm_medium=api_v3_business_search&utm_source=CBM7ZjWiczNoE0SNVf88LA,1,Pizza,1.0,-9.6213102,-35.7328911,,R. Comendador Álvaro Peixoto 727,Maceió,BR,AL,6008.11,
Divina's Pizza,False,https://www.yelp.com/biz/divinas-pizza-macei%C3%B3?adjust_creative=CBM7ZjWiczNoE0SNVf88LA&utm_campaign=yelp_api_v3&utm_medium=api_v3_business_search&utm_source=CBM7ZjWiczNoE0SNVf88LA,1,"Pizza, Brazilian, Food Delivery Services",3.0,-9.6654234,-35.7194252,$,"R. Doutor Zeferino Rodrigues, 808",Maceió,BR,AL,9653.49,1.0
Sushie,False,https://www.yelp.com/biz/sushie-macei%C3%B3?adjust_creative=CBM7ZjWiczNoE0SNVf88LA&utm_campaign=yelp_api_v3&utm_medium=api_v3_business_search&utm_source=CBM7ZjWiczNoE0SNVf88LA,1,Japanese,3.0,-9.6512565,-35.7061393,$$,"Av Dr. Antônio Gomes de Barros, 1144",Maceió,BR,AL,6731.29,2.0
Nicole,False,https://www.yelp.com/biz/nicole-macei%C3%B3?adjust_creative=CBM7ZjWiczNoE0SNVf88LA&utm_campaign=yelp_api_v3&utm_medium=api_v3_business_search&utm_source=CBM7ZjWiczNoE0SNVf88LA,1,Pizza,3.0,-9.6452646,-35.7080307,$,Av. Almirante Álvaro Calheiros 879 B,Maceió,BR,AL,5963.32,1.0
Pizza Bar O Piano,False,https://www.yelp.com/biz/pizza-bar-o-piano-macei%C3%B3?adjust_creative=CBM7ZjWiczNoE0SNVf88LA&utm_campaign=yelp_api_v3&utm_medium=api_v3_business_search&utm_source=CBM7ZjWiczNoE0SNVf88LA,1,Pizza,3.0,-9.64738,-35.70357,$,"R. Escritor Antônio S de Mendonça Júnior, 0",Maceió,BR,AL,6326.89,1.0
Estaleiro Restaurante,False,https://www.yelp.com/biz/estaleiro-restaurante-macap%C3%A1?adjust_creative=CBM7ZjWiczNoE0SNVf88LA&utm_campaign=yelp_api_v3&utm_medium=api_v3_business_search&utm_source=CBM7ZjWiczNoE0SNVf88LA,1,"Brazilian, Seafood",5.0,0.0242747141244913,-51.056740703924,,"Av. Primeiro de Maio, 52",Macapá,BR,AP,9717.26,
Sweet Coffee,False,https://www.yelp.com/biz/sweet-coffee-macap%C3%A1?adjust_creative=CBM7ZjWiczNoE0SNVf88LA&utm_campaign=yelp_api_v3&utm_medium=api_v3_business_search&utm_source=CBM7ZjWiczNoE0SNVf88LA,1,Cafes,5.0,0.040964,-51.059707,,R. Jovino Dinoá,Macapá,BR,AP,7941.83,
Pizzaria e Restaurante Zero Grau,False,https://www.yelp.com/biz/pizzaria-e-restaurante-zero-grau-macap%C3%A1?adjust_creative=CBM7ZjWiczNoE0SNVf88LA&utm_campaign=yelp_api_v3&utm_medium=api_v3_business_search&utm_source=CBM7ZjWiczNoE0SNVf88LA,1,Italian,2.0,0.0343538,-51.0621128,,Rua Leopoldo Machado 2405,Macapá,BR,AP,8447.29,
Barrilde Chopp,False,https://www.yelp.com/biz/barrilde-chopp-macap%C3%A1-2?adjust_creative=CBM7ZjWiczNoE0SNVf88LA&utm_campaign=yelp_api_v3&utm_medium=api_v3_business_search&utm_source=CBM7ZjWiczNoE0SNVf88LA,0,"Bars, American (Traditional)",0.0,0.04769,-51.0571213,,R. Odilado Silva,Macapá,BR,AP,8498.58,
Cantinho Baiano Restaurante,False,https://www.yelp.com/biz/cantinho-baiano-restaurante-macap%C3%A1?adjust_creative=CBM7ZjWiczNoE0SNVf88LA&utm_campaign=yelp_api_v3&utm_medium=api_v3_business_search&utm_source=CBM7ZjWiczNoE0SNVf88LA,0,Restaurants,0.0,0.0506107,-51.0419974,$$,"Rua Beira Rio, 328",Macapá,BR,AP,8375.14,2.0
Cervejaria & Churrascaria Café do Gol,False,https://www.yelp.com/biz/cervejaria-e-churrascaria-caf%C3%A9-do-gol-macap%C3%A1?adjust_creative=CBM7ZjWiczNoE0SNVf88LA&utm_campaign=yelp_api_v3&utm_medium=api_v3_business_search&utm_source=CBM7ZjWiczNoE0SNVf88LA,0,Restaurants,0.0,0.08592,-51.0638695,,R. Vereador Júlio Maria Pinto Pereira 1299,Macapá,BR,AP,4124.99,
Philippe Jean Paul Marceau Delahaye,False,https://www.yelp.com/biz/philippe-jean-paul-marceau-delahaye-macap%C3%A1?adjust_creative=CBM7ZjWiczNoE0SNVf88LA&utm_campaign=yelp_api_v3&utm_medium=api_v3_business_search&utm_source=CBM7ZjWiczNoE0SNVf88LA,0,Restaurants,0.0,0.022283,-51.0610924,,Av. 13 de Setembro 387,Macapá,BR,AP,9695.64,
Delícia Saudável,False,https://www.yelp.com/biz/del%C3%ADcia-saud%C3%A1vel-macap%C3%A1?adjust_creative=CBM7ZjWiczNoE0SNVf88LA&utm_campaign=yelp_api_v3&utm_medium=api_v3_business_search&utm_source=CBM7ZjWiczNoE0SNVf88LA,0,Restaurants,0.0,0.0542521,-51.0551071,,Av. Piauí 644,Macapá,BR,AP,7047.24,
Restaurante Carne de Sol dos Amigos,False,https://www.yelp.com/biz/restaurante-carne-de-sol-dos-amigos-macap%C3%A1?adjust_creative=CBM7ZjWiczNoE0SNVf88LA&utm_campaign=yelp_api_v3&utm_medium=api_v3_business_search&utm_source=CBM7ZjWiczNoE0SNVf88LA,0,Restaurants,0.0,0.0546879,-51.0521469,,R. São Paulo 211 lj A,Macapá,BR,AP,7250.86,
Dona Leila Restaurante,False,https://www.yelp.com/biz/dona-leila-restaurante-macap%C3%A1?adjust_creative=CBM7ZjWiczNoE0SNVf88LA&utm_campaign=yelp_api_v3&utm_medium=api_v3_business_search&utm_source=CBM7ZjWiczNoE0SNVf88LA,0,Restaurants,0.0,0.034387,-51.0488014,,"Av. Júlio Maria Lombaerd, Pe 48",Macapá,BR,AP,8652.55,
Chalé Restaurante,False,https://www.yelp.com/biz/chal%C3%A9-restaurante-macap%C3%A1?adjust_creative=CBM7ZjWiczNoE0SNVf88LA&utm_campaign=yelp_api_v3&utm_medium=api_v3_business_search&utm_source=CBM7ZjWiczNoE0SNVf88LA,0,Restaurants,0.0,0.039276,-51.0696754,,Av. Presidente Getúlio Vargas 499,Macapá,BR,AP,7594.07,
Galetos Grill,False,https://www.yelp.com/biz/galetos-grill-macap%C3%A1?adjust_creative=CBM7ZjWiczNoE0SNVf88LA&utm_campaign=yelp_api_v3&utm_medium=api_v3_business_search&utm_source=CBM7ZjWiczNoE0SNVf88LA,0,Restaurants,0.0,0.0425509,-51.0635338,,R. Hamilton Silva 1215,Macapá,BR,AP,7563.07,
Restaurante Carne de Sol,False,https://www.yelp.com/biz/restaurante-carne-de-sol-macap%C3%A1?adjust_creative=CBM7ZjWiczNoE0SNVf88LA&utm_campaign=yelp_api_v3&utm_medium=api_v3_business_search&utm_source=CBM7ZjWiczNoE0SNVf88LA,0,Restaurants,0.0,0.022703,-51.0711555,,R. Hildemar Maia 3051,Macapá,BR,AP,9247.49,
Restaurante Coma Bem Kilo's,False,https://www.yelp.com/biz/restaurante-coma-bem-kilos-macap%C3%A1?adjust_creative=CBM7ZjWiczNoE0SNVf88LA&utm_campaign=yelp_api_v3&utm_medium=api_v3_business_search&utm_source=CBM7ZjWiczNoE0SNVf88LA,0,Restaurants,0.0,0.0328986,-51.0605927,,Av. Coaracy Nunes 194 C,Macapá,BR,AP,8661.91,
Restaurante Minerin Uai Sô,False,https://www.yelp.com/biz/restaurante-minerin-uai-s%C3%B4-macap%C3%A1?adjust_creative=CBM7ZjWiczNoE0SNVf88LA&utm_campaign=yelp_api_v3&utm_medium=api_v3_business_search&utm_source=CBM7ZjWiczNoE0SNVf88LA,1,Restaurants,2.0,0.011336,-51.0625494,,Pr Araxá 6,Macapá,BR,AP,10761.89,
Restaurante Bambu Bar,False,https://www.yelp.com/biz/restaurante-bambu-bar-macap%C3%A1?adjust_creative=CBM7ZjWiczNoE0SNVf88LA&utm_campaign=yelp_api_v3&utm_medium=api_v3_business_search&utm_source=CBM7ZjWiczNoE0SNVf88LA,0,Restaurants,0.0,-0.0492322,-51.1151009,,R. Nova da Praia 91,Macapá,BR,AP,7116.22,
Pizzaria Água Na Boca,False,https://www.yelp.com/biz/pizzaria-%C3%A1gua-na-boca-macap%C3%A1?adjust_creative=CBM7ZjWiczNoE0SNVf88LA&utm_campaign=yelp_api_v3&utm_medium=api_v3_business_search&utm_source=CBM7ZjWiczNoE0SNVf88LA,0,Pizza,0.0,0.0387666,-51.0624886,,Av. Presidente Getúlio Vargas 1321,Macapá,BR,AP,8008.4,
Barrilde Chopp,False,https://www.yelp.com/biz/barrilde-chopp-macap%C3%A1?adjust_creative=CBM7ZjWiczNoE0SNVf88LA&utm_campaign=yelp_api_v3&utm_medium=api_v3_business_search&utm_source=CBM7ZjWiczNoE0SNVf88LA,0,"American (Traditional), Bars",0.0,0.0388796,-51.071106,,"Av. Presidente Vargas, 352",Macapá,BR,AP,8639.39,
Ayla's Bolos Decorados,False,https://www.yelp.com/biz/aylas-bolos-decorados-macap%C3%A1?adjust_creative=CBM7ZjWiczNoE0SNVf88LA&utm_campaign=yelp_api_v3&utm_medium=api_v3_business_search&utm_source=CBM7ZjWiczNoE0SNVf88LA,0,Buffets,0.0,0.05078,-51.0608482,,R. Leopoldo Machado,Macapá,BR,AP,6947.45,
R C Rocha &cia,False,https://www.yelp.com/biz/r-c-rocha-e-cia-macap%C3%A1?adjust_creative=CBM7ZjWiczNoE0SNVf88LA&utm_campaign=yelp_api_v3&utm_medium=api_v3_business_search&utm_source=CBM7ZjWiczNoE0SNVf88LA,0,Diners,0.0,0.0349089,-51.0622177,,R. Leopoldo Machado 2334 - 3,Macapá,BR,AP,8385.39,
Bobs,False,https://www.yelp.com/biz/bobs-macap%C3%A1?adjust_creative=CBM7ZjWiczNoE0SNVf88LA&utm_campaign=yelp_api_v3&utm_medium=api_v3_business_search&utm_source=CBM7ZjWiczNoE0SNVf88LA,0,Diners,0.0,0.0349089,-51.0622177,,R. Leopoldo Machado 2334 s 302,Macapá,BR,AP,8385.39,
O Q dos Santos,False,https://www.yelp.com/biz/o-q-dos-santos-macap%C3%A1?adjust_creative=CBM7ZjWiczNoE0SNVf88LA&utm_campaign=yelp_api_v3&utm_medium=api_v3_business_search&utm_source=CBM7ZjWiczNoE0SNVf88LA,0,Diners,0.0,0.0339599996805191,-51.0666007995605,,Av. Egito 2967,Macapá,BR,AP,8218.6,
Casa do Pão de Queijo,False,https://www.yelp.com/biz/casa-do-p%C3%A3o-de-queijo-macap%C3%A1-2?adjust_creative=CBM7ZjWiczNoE0SNVf88LA&utm_campaign=yelp_api_v3&utm_medium=api_v3_business_search&utm_source=CBM7ZjWiczNoE0SNVf88LA,0,Diners,0.0,0.0349089,-51.0622177,,R. Leopoldo Machado 2334,Macapá,BR,AP,8385.39,
Forte Lanche,False,https://www.yelp.com/biz/forte-lanche-macap%C3%A1?adjust_creative=CBM7ZjWiczNoE0SNVf88LA&utm_campaign=yelp_api_v3&utm_medium=api_v3_business_search&utm_source=CBM7ZjWiczNoE0SNVf88LA,0,Diners,0.0,0.0499211,-51.0421181,,"R. Beira Rio, 248 box C",Macapá,BR,AP,8218.6,
Casa do Pão de Queijo,False,https://www.yelp.com/biz/casa-do-p%C3%A3o-de-queijo-macap%C3%A1?adjust_creative=CBM7ZjWiczNoE0SNVf88LA&utm_campaign=yelp_api_v3&utm_medium=api_v3_business_search&utm_source=CBM7ZjWiczNoE0SNVf88LA,0,Diners,0.0,0.03671,-51.0704308,,R. Hildemar Maia,Macapá,BR,AP,7817.63,
Bar e Restaurante Gogo de Ouro,False,https://www.yelp.com/biz/bar-e-restaurante-gogo-de-ouro-macap%C3%A1?adjust_creative=CBM7ZjWiczNoE0SNVf88LA&utm_campaign=yelp_api_v3&utm_medium=api_v3_business_search&utm_source=CBM7ZjWiczNoE0SNVf88LA,0,Restaurants,0.0,0.03074,-51.0789185,,Av. Pedro de Oliveira Gomes 2754,Macapá,BR,AP,8149.36,
Restaurante e Peixaria Mateus,False,https://www.yelp.com/biz/restaurante-e-peixaria-mateus-macap%C3%A1?adjust_creative=CBM7ZjWiczNoE0SNVf88LA&utm_campaign=yelp_api_v3&utm_medium=api_v3_business_search&utm_source=CBM7ZjWiczNoE0SNVf88LA,0,Restaurants,0.0,0.0378539,-51.0619812,,R. Leopoldo Machado 2020,Macapá,BR,AP,8128.51,
Café Torrado Cafeteria,False,https://www.yelp.com/biz/caf%C3%A9-torrado-cafeteria-macap%C3%A1?adjust_creative=CBM7ZjWiczNoE0SNVf88LA&utm_campaign=yelp_api_v3&utm_medium=api_v3_business_search&utm_source=CBM7ZjWiczNoE0SNVf88LA,0,,0.0,0.0496339,-51.0422211,,"R. Beira Rio, 208A",Macapá,BR,AP,8422.3,
Espaço Livre Restaurante,False,https://www.yelp.com/biz/espa%C3%A7o-livre-restaurante-macap%C3%A1?adjust_creative=CBM7ZjWiczNoE0SNVf88LA&utm_campaign=yelp_api_v3&utm_medium=api_v3_business_search&utm_source=CBM7ZjWiczNoE0SNVf88LA,0,Restaurants,0.0,0.0363595,-51.0556374,,Av. General Gurjão 18,Macapá,BR,AP,8598.64,
Pousada e Restaurante Vista Amazônica,False,https://www.yelp.com/biz/pousada-e-restaurante-vista-amaz%C3%B4nica-macap%C3%A1?adjust_creative=CBM7ZjWiczNoE0SNVf88LA&utm_campaign=yelp_api_v3&utm_medium=api_v3_business_search&utm_source=CBM7ZjWiczNoE0SNVf88LA,0,Restaurants,0.0,0.05269,-51.0413895,,R. Beira Rio 1298,Macapá,BR,AP,8282.12,
Comercial Nogueira,False,https://www.yelp.com/biz/comercial-nogueira-macap%C3%A1-2?adjust_creative=CBM7ZjWiczNoE0SNVf88LA&utm_campaign=yelp_api_v3&utm_medium=api_v3_business_search&utm_source=CBM7ZjWiczNoE0SNVf88LA,0,Restaurants,0.0,0.0385601,-51.0547867,,R. General Rondon 1569 B,Macapá,BR,AP,8469.33,
Silva & Silvaepp,False,https://www.yelp.com/biz/silva-e-silvaepp-macap%C3%A1?adjust_creative=CBM7ZjWiczNoE0SNVf88LA&utm_campaign=yelp_api_v3&utm_medium=api_v3_business_search&utm_source=CBM7ZjWiczNoE0SNVf88LA,0,Restaurants,0.0,-0.05497,-51.1117516,,R. Beira Rio 1418 A,Macapá,BR,AP,8291.42,
Restaurante Bolinha,False,https://www.yelp.com/biz/restaurante-bolinha-macap%C3%A1?adjust_creative=CBM7ZjWiczNoE0SNVf88LA&utm_campaign=yelp_api_v3&utm_medium=api_v3_business_search&utm_source=CBM7ZjWiczNoE0SNVf88LA,0,Restaurants,0.0,0.0375968,-51.0529022,,R. Tiradentes 610,Macapá,BR,AP,8674.0,
Mister Grill,False,https://www.yelp.com/biz/mister-grill-macap%C3%A1?adjust_creative=CBM7ZjWiczNoE0SNVf88LA&utm_campaign=yelp_api_v3&utm_medium=api_v3_business_search&utm_source=CBM7ZjWiczNoE0SNVf88LA,0,Restaurants,0.0,0.0334835,-51.0561409,,Av. Mendonça Júnior 1286,Macapá,BR,AP,8838.6,
Sarney Lanches,False,https://www.yelp.com/biz/sarney-lanches-macap%C3%A1?adjust_creative=CBM7ZjWiczNoE0SNVf88LA&utm_campaign=yelp_api_v3&utm_medium=api_v3_business_search&utm_source=CBM7ZjWiczNoE0SNVf88LA,0,Restaurants,0.0,0.0377713,-51.0548477,,R. General Rondon 1483,Macapá,BR,AP,8535.05,
Restaurante Palmistes,False,https://www.yelp.com/biz/restaurante-palmistes-macap%C3%A1?adjust_creative=CBM7ZjWiczNoE0SNVf88LA&utm_campaign=yelp_api_v3&utm_medium=api_v3_business_search&utm_source=CBM7ZjWiczNoE0SNVf88LA,0,Restaurants,0.0,0.0504093,-51.0419426,,"R. Beira Rio, 316",Macapá,BR,AP,8379.78,
Choppicanha Choperia e Churrascaria,False,https://www.yelp.com/biz/choppicanha-choperia-e-churrascaria-macap%C3%A1?adjust_creative=CBM7ZjWiczNoE0SNVf88LA&utm_campaign=yelp_api_v3&utm_medium=api_v3_business_search&utm_source=CBM7ZjWiczNoE0SNVf88LA,0,Restaurants,0.0,0.0348645,-51.0596581,,"R. Júlio Maria Lombard, Pe 1295 A",Macapá,BR,AP,8508.19,
Tchoy Restaurante Oriental,False,https://www.yelp.com/biz/tchoy-restaurante-oriental-macap%C3%A1?adjust_creative=CBM7ZjWiczNoE0SNVf88LA&utm_campaign=yelp_api_v3&utm_medium=api_v3_business_search&utm_source=CBM7ZjWiczNoE0SNVf88LA,0,Restaurants,0.0,0.031892,-51.0645142,,R. Hamilton Silva 2442,Macapá,BR,AP,8588.19,
Panela de Barro,False,https://www.yelp.com/biz/panela-de-barro-macap%C3%A1?adjust_creative=CBM7ZjWiczNoE0SNVf88LA&utm_campaign=yelp_api_v3&utm_medium=api_v3_business_search&utm_source=CBM7ZjWiczNoE0SNVf88LA,0,Restaurants,0.0,0.0507109,-51.0418358,,R. Beira Rio 358,Macapá,BR,AP,8363.61,
Café Aymoré,False,https://www.yelp.com/biz/caf%C3%A9-aymor%C3%A9-macap%C3%A1?adjust_creative=CBM7ZjWiczNoE0SNVf88LA&utm_campaign=yelp_api_v3&utm_medium=api_v3_business_search&utm_source=CBM7ZjWiczNoE0SNVf88LA,0,Restaurants,0.0,0.0397944,-51.0567932,,Av. Iracema Carvão Nunes 92,Macapá,BR,AP,8213.39,
Rod's Bar e Restaurante,False,https://www.yelp.com/biz/rods-bar-e-restaurante-macap%C3%A1?adjust_creative=CBM7ZjWiczNoE0SNVf88LA&utm_campaign=yelp_api_v3&utm_medium=api_v3_business_search&utm_source=CBM7ZjWiczNoE0SNVf88LA,0,Restaurants,0.0,0.0493898,-51.0423088,,R. Beira Rio 174,Macapá,BR,AP,8760.35,
Churrascaria Grill do Pará,False,https://www.yelp.com/biz/churrascaria-grill-do-par%C3%A1-macap%C3%A1?adjust_creative=CBM7ZjWiczNoE0SNVf88LA&utm_campaign=yelp_api_v3&utm_medium=api_v3_business_search&utm_source=CBM7ZjWiczNoE0SNVf88LA,0,Restaurants,0.0,0.0320291,-51.0624275,,R. Leopoldo Machado 2664,Macapá,BR,AP,8662.11,
S A Kilos e Assados,False,https://www.yelp.com/biz/s-a-kilos-e-assados-macap%C3%A1?adjust_creative=CBM7ZjWiczNoE0SNVf88LA&utm_campaign=yelp_api_v3&utm_medium=api_v3_business_search&utm_source=CBM7ZjWiczNoE0SNVf88LA,0,Restaurants,0.0,0.0360053,-51.064209,,R. Hamilton Silva 1948,Macapá,BR,AP,8170.47,
Restaurante Só Assados,False,https://www.yelp.com/biz/restaurante-s%C3%B3-assados-macap%C3%A1?adjust_creative=CBM7ZjWiczNoE0SNVf88LA&utm_campaign=yelp_api_v3&utm_medium=api_v3_business_search&utm_source=CBM7ZjWiczNoE0SNVf88LA,0,Restaurants,0.0,0.0324368,-51.0760307,,Av. Henrique Gallucio 294,Macapá,BR,AP,8036.46,
Sagrada Família Restaurante,False,https://www.yelp.com/biz/sagrada-fam%C3%ADlia-restaurante-macap%C3%A1?adjust_creative=CBM7ZjWiczNoE0SNVf88LA&utm_campaign=yelp_api_v3&utm_medium=api_v3_business_search&utm_source=CBM7ZjWiczNoE0SNVf88LA,0,Restaurants,0.0,0.0361872,-51.0741463,,"R. Júlio Maria Lombard, Pe 2934 B",Macapá,BR,AP,7726.99,
Churrascaria Santa Rita,False,https://www.yelp.com/biz/churrascaria-santa-rita-macap%C3%A1?adjust_creative=CBM7ZjWiczNoE0SNVf88LA&utm_campaign=yelp_api_v3&utm_medium=api_v3_business_search&utm_source=CBM7ZjWiczNoE0SNVf88LA,0,Restaurants,0.0,0.0353832,-51.076252,,Av. Mendonça Furtado 2084,Macapá,BR,AP,7737.64,
Oceanic Restaurante,False,https://www.yelp.com/biz/oceanic-restaurante-macap%C3%A1?adjust_creative=CBM7ZjWiczNoE0SNVf88LA&utm_campaign=yelp_api_v3&utm_medium=api_v3_business_search&utm_source=CBM7ZjWiczNoE0SNVf88LA,0,Restaurants,0.0,0.05269,-51.0413895,,R. Beira Rio 1398,Macapá,BR,AP,7958.94,
Cantina Italiana,False,https://www.yelp.com/biz/cantina-italiana-macap%C3%A1?adjust_creative=CBM7ZjWiczNoE0SNVf88LA&utm_campaign=yelp_api_v3&utm_medium=api_v3_business_search&utm_source=CBM7ZjWiczNoE0SNVf88LA,0,Restaurants,0.0,0.0365905,-51.0709724,,Av. Professora Cora de Carvalho 2459,Macapá,BR,AP,7796.69,
Bar e Restaurante Bom Clima,False,https://www.yelp.com/biz/bar-e-restaurante-bom-clima-macap%C3%A1?adjust_creative=CBM7ZjWiczNoE0SNVf88LA&utm_campaign=yelp_api_v3&utm_medium=api_v3_business_search&utm_source=CBM7ZjWiczNoE0SNVf88LA,0,Restaurants,0.0,0.05269,-51.0413895,,R. Beira Rio 1308,Macapá,BR,AP,7958.94,
Restaurante Dom Garcia,False,https://www.yelp.com/biz/restaurante-dom-garcia-macap%C3%A1?adjust_creative=CBM7ZjWiczNoE0SNVf88LA&utm_campaign=yelp_api_v3&utm_medium=api_v3_business_search&utm_source=CBM7ZjWiczNoE0SNVf88LA,0,Restaurants,0.0,0.03287,-51.1164017,,Rod. Duque de Caxias 240,Macapá,BR,AP,8027.32,
Trapiche Restaurante,False,https://www.yelp.com/biz/trapiche-restaurante-macap%C3%A1?adjust_creative=CBM7ZjWiczNoE0SNVf88LA&utm_campaign=yelp_api_v3&utm_medium=api_v3_business_search&utm_source=CBM7ZjWiczNoE0SNVf88LA,0,Restaurants,0.0,0.05269,-51.0413895,,R. Beira Rio 1294,Macapá,BR,AP,7958.94,
Salgadinho Lanches,False,https://www.yelp.com/biz/salgadinho-lanches-macap%C3%A1?adjust_creative=CBM7ZjWiczNoE0SNVf88LA&utm_campaign=yelp_api_v3&utm_medium=api_v3_business_search&utm_source=CBM7ZjWiczNoE0SNVf88LA,0,Diners,0.0,0.0495208,-51.0602531,,Av. Ana Nery 524,Macapá,BR,AP,7101.0,
Moraes e Santos Promoções e Eventos Comerciais,False,https://www.yelp.com/biz/moraes-e-santos-promo%C3%A7%C3%B5es-e-eventos-comerciais-macap%C3%A1?adjust_creative=CBM7ZjWiczNoE0SNVf88LA&utm_campaign=yelp_api_v3&utm_medium=api_v3_business_search&utm_source=CBM7ZjWiczNoE0SNVf88LA,0,Restaurants,0.0,0.0344428,-51.0538559,,Av. Padre Júlio Maria Lombard 623,Macapá,BR,AP,8892.45,
Churrascaria e Pizzaria do Goiano,False,https://www.yelp.com/biz/churrascaria-e-pizzaria-do-goiano-macap%C3%A1?adjust_creative=CBM7ZjWiczNoE0SNVf88LA&utm_campaign=yelp_api_v3&utm_medium=api_v3_business_search&utm_source=CBM7ZjWiczNoE0SNVf88LA,0,Steakhouses,0.0,0.0356055,-51.0530434,,R. Tiradentes 854,Macapá,BR,AP,8858.54,
X do Sul Lanches,False,https://www.yelp.com/biz/x-do-sul-lanches-macap%C3%A1?adjust_creative=CBM7ZjWiczNoE0SNVf88LA&utm_campaign=yelp_api_v3&utm_medium=api_v3_business_search&utm_source=CBM7ZjWiczNoE0SNVf88LA,0,Diners,0.0,0.0249219,-51.0613899,,Av. 1º de Maio 2035,Macapá,BR,AP,9306.93,
Estrela de Davi Sorveteria e Pizzaria,False,https://www.yelp.com/biz/estrela-de-davi-sorveteria-e-pizzaria-macap%C3%A1?adjust_creative=CBM7ZjWiczNoE0SNVf88LA&utm_campaign=yelp_api_v3&utm_medium=api_v3_business_search&utm_source=CBM7ZjWiczNoE0SNVf88LA,0,Italian,0.0,0.034968,-51.0516382,,Rua S José 895,Macapá,BR,AP,8991.08,
Bambino Restaurante,False,https://www.yelp.com/biz/bambino-restaurante-macap%C3%A1?adjust_creative=CBM7ZjWiczNoE0SNVf88LA&utm_campaign=yelp_api_v3&utm_medium=api_v3_business_search&utm_source=CBM7ZjWiczNoE0SNVf88LA,0,Restaurants,0.0,0.0196245,-51.0728989,,Av. dos Tupiniquins 1320,Macapá,BR,AP,9525.27,
Restaurante Frigideira,False,https://www.yelp.com/biz/restaurante-frigideira-macap%C3%A1?adjust_creative=CBM7ZjWiczNoE0SNVf88LA&utm_campaign=yelp_api_v3&utm_medium=api_v3_business_search&utm_source=CBM7ZjWiczNoE0SNVf88LA,0,Restaurants,0.0,0.0334389,-51.0488472,,Av. Mendonça Júnior 12 B,Macapá,BR,AP,9324.42,
Subway,False,https://www.yelp.com/biz/subway-bel%C3%A9m?adjust_creative=CBM7ZjWiczNoE0SNVf88LA&utm_campaign=yelp_api_v3&utm_medium=api_v3_business_search&utm_source=CBM7ZjWiczNoE0SNVf88LA,1,Fast Food,3.0,-1.4135,-48.4686562,,Vila Rubi 48,Belém,BR,PA,8352.99,
Prato de Barro Eventos e Recepções,False,https://www.yelp.com/biz/prato-de-barro-eventos-e-recep%C3%A7%C3%B5es-macap%C3%A1?adjust_creative=CBM7ZjWiczNoE0SNVf88LA&utm_campaign=yelp_api_v3&utm_medium=api_v3_business_search&utm_source=CBM7ZjWiczNoE0SNVf88LA,0,Buffets,0.0,0.0497796,-51.0539246,,R. General Rondon 2839,Macapá,BR,AP,7535.17,
Khristal Recepções,False,https://www.yelp.com/biz/khristal-recep%C3%A7%C3%B5es-macap%C3%A1?adjust_creative=CBM7ZjWiczNoE0SNVf88LA&utm_campaign=yelp_api_v3&utm_medium=api_v3_business_search&utm_source=CBM7ZjWiczNoE0SNVf88LA,0,Buffets,0.0,0.0401462,-51.0693817,,Av. Duque de Caxias 529,Macapá,BR,AP,7521.15,
São José Lanches,False,https://www.yelp.com/biz/s%C3%A3o-jos%C3%A9-lanches-macap%C3%A1?adjust_creative=CBM7ZjWiczNoE0SNVf88LA&utm_campaign=yelp_api_v3&utm_medium=api_v3_business_search&utm_source=CBM7ZjWiczNoE0SNVf88LA,0,Diners,0.0,0.03766,-51.0611916,,Av. Mário Cruz,Macapá,BR,AP,8133.79,
Waldir Buffet,False,https://www.yelp.com/biz/waldir-buffet-macap%C3%A1?adjust_creative=CBM7ZjWiczNoE0SNVf88LA&utm_campaign=yelp_api_v3&utm_medium=api_v3_business_search&utm_source=CBM7ZjWiczNoE0SNVf88LA,0,Buffets,0.0,0.0455604,-51.0566635,,"Av. Mãe Luzia, 1228",Macapá,BR,AP,7691.89,
Divina Arte,False,https://www.yelp.com/biz/divina-arte-macap%C3%A1?adjust_creative=CBM7ZjWiczNoE0SNVf88LA&utm_campaign=yelp_api_v3&utm_medium=api_v3_business_search&utm_source=CBM7ZjWiczNoE0SNVf88LA,0,Buffets,0.0,0.0380108,-51.0578537,,R. Odilardo Silva 1574,Macapá,BR,AP,8328.49,
Regini's Buffet,False,https://www.yelp.com/biz/reginis-buffet-macap%C3%A1?adjust_creative=CBM7ZjWiczNoE0SNVf88LA&utm_campaign=yelp_api_v3&utm_medium=api_v3_business_search&utm_source=CBM7ZjWiczNoE0SNVf88LA,0,Buffets,0.0,0.0424746,-51.0544624,,Av. Raimundo Álvares da Costa 2675,Macapá,BR,AP,8147.24,
Restaurante Chão do Nordeste,False,https://www.yelp.com/biz/restaurante-ch%C3%A3o-do-nordeste-macap%C3%A1?adjust_creative=CBM7ZjWiczNoE0SNVf88LA&utm_campaign=yelp_api_v3&utm_medium=api_v3_business_search&utm_source=CBM7ZjWiczNoE0SNVf88LA,0,Restaurants,0.0,0.018634,-51.0569229,,R. André de Oliveira Costa 652,Macapá,BR,AP,10285.07,
Aconchego Restaurante Peixaria,False,https://www.yelp.com/biz/aconchego-restaurante-peixaria-macap%C3%A1?adjust_creative=CBM7ZjWiczNoE0SNVf88LA&utm_campaign=yelp_api_v3&utm_medium=api_v3_business_search&utm_source=CBM7ZjWiczNoE0SNVf88LA,0,Restaurants,0.0,0.0181426,-51.0569496,,R. André de Oliveira Costa 682,Macapá,BR,AP,10310.95,
Elizete Buffet e Eventos,False,https://www.yelp.com/biz/elizete-buffet-e-eventos-macap%C3%A1?adjust_creative=CBM7ZjWiczNoE0SNVf88LA&utm_campaign=yelp_api_v3&utm_medium=api_v3_business_search&utm_source=CBM7ZjWiczNoE0SNVf88LA,0,Buffets,0.0,0.0318434,-51.0569458,,Av. Álvaro Carvalho Barbosa 2816,Macapá,BR,AP,8218.6,
Bolo da Maria Buffet,False,https://www.yelp.com/biz/bolo-da-maria-buffet-macap%C3%A1?adjust_creative=CBM7ZjWiczNoE0SNVf88LA&utm_campaign=yelp_api_v3&utm_medium=api_v3_business_search&utm_source=CBM7ZjWiczNoE0SNVf88LA,0,Buffets,0.0,0.0245343,-51.0859108,,R. Antônio Pinheiro Sampaio 83,Macapá,BR,AP,8669.98,
Doce Vida,False,https://www.yelp.com/biz/doce-vida-macap%C3%A1?adjust_creative=CBM7ZjWiczNoE0SNVf88LA&utm_campaign=yelp_api_v3&utm_medium=api_v3_business_search&utm_source=CBM7ZjWiczNoE0SNVf88LA,0,Buffets,0.0,0.0338704,-51.0598335,,Av. Mendonça Furtado 213,Macapá,BR,AP,8595.49,
Doçuras Confeitaria,False,https://www.yelp.com/biz/do%C3%A7uras-confeitaria-macap%C3%A1?adjust_creative=CBM7ZjWiczNoE0SNVf88LA&utm_campaign=yelp_api_v3&utm_medium=api_v3_business_search&utm_source=CBM7ZjWiczNoE0SNVf88LA,0,Buffets,0.0,0.0411181,-51.0597725,,Av. Fab 2245 A,Macapá,BR,AP,7939.51,
Bodega Dellivery,False,https://www.yelp.com/biz/bodega-dellivery-macap%C3%A1?adjust_creative=CBM7ZjWiczNoE0SNVf88LA&utm_campaign=yelp_api_v3&utm_medium=api_v3_business_search&utm_source=CBM7ZjWiczNoE0SNVf88LA,0,Pizza,0.0,0.0525579,-51.0608521,,R. Leopoldo Machado 346,Macapá,BR,AP,6812.84,
Tenda da Dedeka,False,https://www.yelp.com/biz/tenda-da-dedeka-macap%C3%A1?adjust_creative=CBM7ZjWiczNoE0SNVf88LA&utm_campaign=yelp_api_v3&utm_medium=api_v3_business_search&utm_source=CBM7ZjWiczNoE0SNVf88LA,0,Diners,0.0,0.05269,-51.0413895,,R. Beira Rio,Macapá,BR,AP,8317.11,
Lanche Dias,False,https://www.yelp.com/biz/lanche-dias-macap%C3%A1?adjust_creative=CBM7ZjWiczNoE0SNVf88LA&utm_campaign=yelp_api_v3&utm_medium=api_v3_business_search&utm_source=CBM7ZjWiczNoE0SNVf88LA,0,Diners,0.0,0.0290682,-51.0774956,,R. Roberto Ferreira da Silva 519,Macapá,BR,AP,8374.39,
Mister X,False,https://www.yelp.com/biz/mister-x-macap%C3%A1?adjust_creative=CBM7ZjWiczNoE0SNVf88LA&utm_campaign=yelp_api_v3&utm_medium=api_v3_business_search&utm_source=CBM7ZjWiczNoE0SNVf88LA,0,Diners,0.0,0.038333,-51.0545349,,R. General Rondon 1536 A,Macapá,BR,AP,8497.75,
Bizzum da Pizza,False,https://www.yelp.com/biz/bizzum-da-pizza-macap%C3%A1?adjust_creative=CBM7ZjWiczNoE0SNVf88LA&utm_campaign=yelp_api_v3&utm_medium=api_v3_business_search&utm_source=CBM7ZjWiczNoE0SNVf88LA,0,Pizza,0.0,0.0490778,-51.0608139,,R. Leopoldo Machado 737 lj A,Macapá,BR,AP,7113.23,
Status Buffet,False,https://www.yelp.com/biz/status-buffet-macap%C3%A1?adjust_creative=CBM7ZjWiczNoE0SNVf88LA&utm_campaign=yelp_api_v3&utm_medium=api_v3_business_search&utm_source=CBM7ZjWiczNoE0SNVf88LA,0,Buffets,0.0,0.0241505,-51.0572205,,R. Eliézer Levy 51,Macapá,BR,AP,9708.76,
Lanchonete A Moderninha,False,https://www.yelp.com/biz/lanchonete-a-moderninha-macap%C3%A1?adjust_creative=CBM7ZjWiczNoE0SNVf88LA&utm_campaign=yelp_api_v3&utm_medium=api_v3_business_search&utm_source=CBM7ZjWiczNoE0SNVf88LA,0,Diners,0.0,0.0362671,-51.0504494,,R. Cândido Mendes 985,Macapá,BR,AP,8964.22,
Esquina Grill,False,https://www.yelp.com/biz/esquina-grill-macap%C3%A1?adjust_creative=CBM7ZjWiczNoE0SNVf88LA&utm_campaign=yelp_api_v3&utm_medium=api_v3_business_search&utm_source=CBM7ZjWiczNoE0SNVf88LA,0,Buffets,0.0,0.010225,-51.0745964,,Av. 25 de Julho 1030,Macapá,BR,AP,10552.32,
Tuti Frutti,False,https://www.yelp.com/biz/tuti-frutti-macap%C3%A1?adjust_creative=CBM7ZjWiczNoE0SNVf88LA&utm_campaign=yelp_api_v3&utm_medium=api_v3_business_search&utm_source=CBM7ZjWiczNoE0SNVf88LA,0,Diners,0.0,0.0488303,-51.0425339,,R. Beira Rio 118,Macapá,BR,AP,9604.55,
Cia Paulista de Pizza,False,https://www.yelp.com/biz/cia-paulista-de-pizza-macap%C3%A1?adjust_creative=CBM7ZjWiczNoE0SNVf88LA&utm_campaign=yelp_api_v3&utm_medium=api_v3_business_search&utm_source=CBM7ZjWiczNoE0SNVf88LA,0,Pizza,0.0,0.0409931,-51.0526466,,"R. Tiradentes, 226",Macapá,BR,AP,8385.83,
Pizzamille,False,https://www.yelp.com/biz/pizzamille-macap%C3%A1?adjust_creative=CBM7ZjWiczNoE0SNVf88LA&utm_campaign=yelp_api_v3&utm_medium=api_v3_business_search&utm_source=CBM7ZjWiczNoE0SNVf88LA,0,Pizza,0.0,0.0349089,-51.0622177,,"R. Leopoldo Machado, 2334",Macapá,BR,AP,8385.39,
Casa da Pizza,False,https://www.yelp.com/biz/casa-da-pizza-macap%C3%A1?adjust_creative=CBM7ZjWiczNoE0SNVf88LA&utm_campaign=yelp_api_v3&utm_medium=api_v3_business_search&utm_source=CBM7ZjWiczNoE0SNVf88LA,0,Pizza,0.0,0.0387991,-51.0539856,,Av. Coriolano Jucá 66,Macapá,BR,AP,8476.82,
Moita Tejo - Supermercados,False,https://www.yelp.com/biz/moita-tejo-supermercados-moita?adjust_creative=CBM7ZjWiczNoE0SNVf88LA&utm_campaign=yelp_api_v3&utm_medium=api_v3_business_search&utm_source=CBM7ZjWiczNoE0SNVf88LA,0,"Grocery, Restaurants",0.0,38.6454544067383,-8.99084186553955,,Qta. Sta. Rosa,São Paulo,PT,SP,7956.52,
Fornão Express,False,https://www.yelp.com/biz/forn%C3%A3o-express-macap%C3%A1?adjust_creative=CBM7ZjWiczNoE0SNVf88LA&utm_campaign=yelp_api_v3&utm_medium=api_v3_business_search&utm_source=CBM7ZjWiczNoE0SNVf88LA,0,Pizza,0.0,0.0312763,-51.0570564,,Av. Henrique Galúcio 2447,Macapá,BR,AP,9031.35,
Restaurante Pizzaria Plutão,False,https://www.yelp.com/biz/restaurante-pizzaria-plut%C3%A3o-macap%C3%A1?adjust_creative=CBM7ZjWiczNoE0SNVf88LA&utm_campaign=yelp_api_v3&utm_medium=api_v3_business_search&utm_source=CBM7ZjWiczNoE0SNVf88LA,0,Pizza,0.0,0.0219486,-51.0660591,,Av. Pedro Lazarino 1308,Macapá,BR,AP,9510.88,
Pizzaria Buona Pizza,False,https://www.yelp.com/biz/pizzaria-buona-pizza-macap%C3%A1?adjust_creative=CBM7ZjWiczNoE0SNVf88LA&utm_campaign=yelp_api_v3&utm_medium=api_v3_business_search&utm_source=CBM7ZjWiczNoE0SNVf88LA,0,Pizza,0.0,0.0228096,-51.0609703,,R. Jovino Dinoá 3486 c,Macapá,BR,AP,9659.98,
Churrascaria Búfalo,False,https://www.yelp.com/biz/churrascaria-b%C3%BAfalo-manaus?adjust_creative=CBM7ZjWiczNoE0SNVf88LA&utm_campaign=yelp_api_v3&utm_medium=api_v3_business_search&utm_source=CBM7ZjWiczNoE0SNVf88LA,4,Steakhouses,4.5,-3.1085638,-60.0222462,$$$,Rua Pará 491,Manaus,BR,AM,9363.01,3.0
Caxiri,False,https://www.yelp.com/biz/caxiri-manaus?adjust_creative=CBM7ZjWiczNoE0SNVf88LA&utm_campaign=yelp_api_v3&utm_medium=api_v3_business_search&utm_source=CBM7ZjWiczNoE0SNVf88LA,3,Brazilian,5.0,-3.129756,-60.023111,,"R. 10 de Julho, 945",Manaus,BR,AM,11311.9,
Tambaqui de Banda,False,https://www.yelp.com/biz/tambaqui-de-banda-manaus?adjust_creative=CBM7ZjWiczNoE0SNVf88LA&utm_campaign=yelp_api_v3&utm_medium=api_v3_business_search&utm_source=CBM7ZjWiczNoE0SNVf88LA,11,Brazilian,4.0,-3.077064,-60.00834,$$,"Av. Tancredo Neves, 9",Manaus,BR,AM,5801.59,2.0
Restaurante Tempero,False,https://www.yelp.com/biz/restaurante-tempero-manaus?adjust_creative=CBM7ZjWiczNoE0SNVf88LA&utm_campaign=yelp_api_v3&utm_medium=api_v3_business_search&utm_source=CBM7ZjWiczNoE0SNVf88LA,2,Restaurants,5.0,-3.1296255,-60.0204315,,Av Getúlio Vargas 715,Manaus,BR,AM,11139.97,
Banzeiro,False,https://www.yelp.com/biz/banzeiro-manaus?adjust_creative=CBM7ZjWiczNoE0SNVf88LA&utm_campaign=yelp_api_v3&utm_medium=api_v3_business_search&utm_source=CBM7ZjWiczNoE0SNVf88LA,16,Brazilian,4.0,-3.112315,-60.01693,$$$,"R. Libertador, 102",Manaus,BR,AM,9324.89,3.0
La Parrilla,False,https://www.yelp.com/biz/la-parrilla-manaus?adjust_creative=CBM7ZjWiczNoE0SNVf88LA&utm_campaign=yelp_api_v3&utm_medium=api_v3_business_search&utm_source=CBM7ZjWiczNoE0SNVf88LA,2,"Steakhouses, Argentine",4.5,-3.07410995732687,-60.0300643577568,,"Av. Desembargador João Machado, 63",Manaus,BR,AM,7686.53,
Choupana Restaurante,False,https://www.yelp.com/biz/choupana-restaurante-manaus?adjust_creative=CBM7ZjWiczNoE0SNVf88LA&utm_campaign=yelp_api_v3&utm_medium=api_v3_business_search&utm_source=CBM7ZjWiczNoE0SNVf88LA,5,Restaurants,4.0,-3.0116401,-59.9484406,$$$,R. Recife 790,Manaus,BR,AM,8693.23,3.0
Barollo,False,https://www.yelp.com/biz/barollo-manaus?adjust_creative=CBM7ZjWiczNoE0SNVf88LA&utm_campaign=yelp_api_v3&utm_medium=api_v3_business_search&utm_source=CBM7ZjWiczNoE0SNVf88LA,1,"Wine Bars, Steakhouses",5.0,-3.104328,-60.023616,,"R. Rio Ituxi, 290",Manaus,BR,AM,9113.25,
Amazônico,False,https://www.yelp.com/biz/amaz%C3%B4nico-manaus-2?adjust_creative=CBM7ZjWiczNoE0SNVf88LA&utm_campaign=yelp_api_v3&utm_medium=api_v3_business_search&utm_source=CBM7ZjWiczNoE0SNVf88LA,9,"Seafood, Brazilian",3.5,-3.09202285443212,-60.0197462691678,$$$,"Av. Darcy Vargas, 226",Manaus,BR,AM,7845.65,3.0
Galo Carijó Restaurante,False,https://www.yelp.com/biz/galo-carij%C3%B3-restaurante-manaus?adjust_creative=CBM7ZjWiczNoE0SNVf88LA&utm_campaign=yelp_api_v3&utm_medium=api_v3_business_search&utm_source=CBM7ZjWiczNoE0SNVf88LA,1,Restaurants,5.0,-3.1395156,-60.0198402,,R. dos Andradas 536,Manaus,BR,AM,12034.27,
Peixaria Morada do Peixe,False,https://www.yelp.com/biz/peixaria-morada-do-peixe-manaus?adjust_creative=CBM7ZjWiczNoE0SNVf88LA&utm_campaign=yelp_api_v3&utm_medium=api_v3_business_search&utm_source=CBM7ZjWiczNoE0SNVf88LA,1,"Brazilian, Seafood",4.0,-3.056541,-60.055365,,"R. Goiania, s/n",Manaus,BR,AM,9847.08,
Himawari Restaurante,False,https://www.yelp.com/biz/himawari-restaurante-manaus?adjust_creative=CBM7ZjWiczNoE0SNVf88LA&utm_campaign=yelp_api_v3&utm_medium=api_v3_business_search&utm_source=CBM7ZjWiczNoE0SNVf88LA,2,Restaurants,4.0,-3.1297951,-60.0225716,,R. 10 de Julho 618,Manaus,BR,AM,11212.05,
Naia,False,https://www.yelp.com/biz/naia-manaus?adjust_creative=CBM7ZjWiczNoE0SNVf88LA&utm_campaign=yelp_api_v3&utm_medium=api_v3_business_search&utm_source=CBM7ZjWiczNoE0SNVf88LA,3,"Bars, Brazilian",3.5,-3.12357562901744,-59.982107721145,$$,Hotel Holiday Inn,Manaus,BR,AM,8939.34,2.0
Trattoria da Margo,False,https://www.yelp.com/biz/trattoria-da-margo-manaus?adjust_creative=CBM7ZjWiczNoE0SNVf88LA&utm_campaign=yelp_api_v3&utm_medium=api_v3_business_search&utm_source=CBM7ZjWiczNoE0SNVf88LA,2,Restaurants,4.5,-3.0784,-59.99379,,Rua 3 1 qd 2,Manaus,BR,AM,4766.01,
Galeria Cristal,False,https://www.yelp.com/biz/galeria-cristal-manaus?adjust_creative=CBM7ZjWiczNoE0SNVf88LA&utm_campaign=yelp_api_v3&utm_medium=api_v3_business_search&utm_source=CBM7ZjWiczNoE0SNVf88LA,1,Food Court,5.0,-3.104064,-60.010105,,"Av. Humberto Calderaro Filho, 455",Manaus,BR,AM,8137.48,
Tambaqui de Banda,False,https://www.yelp.com/biz/tambaqui-de-banda-manaus-2?adjust_creative=CBM7ZjWiczNoE0SNVf88LA&utm_campaign=yelp_api_v3&utm_medium=api_v3_business_search&utm_source=CBM7ZjWiczNoE0SNVf88LA,3,Brazilian,4.5,-3.13085,-60.022821,,"R. José Clemente, 596",Manaus,BR,AM,11396.64,
Fitz Carraldo Bistrô,False,https://www.yelp.com/biz/fitz-carraldo-bistr%C3%B4-manaus?adjust_creative=CBM7ZjWiczNoE0SNVf88LA&utm_campaign=yelp_api_v3&utm_medium=api_v3_business_search&utm_source=CBM7ZjWiczNoE0SNVf88LA,2,Bistros,4.5,-3.129563,-60.024705,,"R. 10 de Julho, 315",Manaus,BR,AM,11391.65,
Cachaçaria do Dedé,False,https://www.yelp.com/biz/cacha%C3%A7aria-do-ded%C3%A9-manaus-3?adjust_creative=CBM7ZjWiczNoE0SNVf88LA&utm_campaign=yelp_api_v3&utm_medium=api_v3_business_search&utm_source=CBM7ZjWiczNoE0SNVf88LA,1,"Bars, Brazilian",4.0,-3.1039808,-60.0134607,,Manauara Shopping,Manaus,BR,AM,8274.21,
Casa da Pamonha,False,https://www.yelp.com/biz/casa-da-pamonha-manaus?adjust_creative=CBM7ZjWiczNoE0SNVf88LA&utm_campaign=yelp_api_v3&utm_medium=api_v3_business_search&utm_source=CBM7ZjWiczNoE0SNVf88LA,1,Diners,4.0,-3.1323609,-60.0233513,,"R. Barroso, 375",Manaus,BR,AM,11465.43,
Belle Époque,False,https://www.yelp.com/biz/belle-%C3%A9poque-manaus?adjust_creative=CBM7ZjWiczNoE0SNVf88LA&utm_campaign=yelp_api_v3&utm_medium=api_v3_business_search&utm_source=CBM7ZjWiczNoE0SNVf88LA,1,French,5.0,-3.10535,-60.01935,,"R. Acre, 95",Manaus,BR,AM,8876.86,
Shin Suzuran,False,https://www.yelp.com/biz/shin-suzuran-mogi-das-cruzes?adjust_creative=CBM7ZjWiczNoE0SNVf88LA&utm_campaign=yelp_api_v3&utm_medium=api_v3_business_search&utm_source=CBM7ZjWiczNoE0SNVf88LA,1,Japanese,5.0,-3.10753211426156,-60.0188017264009,,"Av. João Valério, 762",São Paulo,BR,SP,9030.06,
Samauma,False,https://www.yelp.com/biz/samauma-manaus?adjust_creative=CBM7ZjWiczNoE0SNVf88LA&utm_campaign=yelp_api_v3&utm_medium=api_v3_business_search&utm_source=CBM7ZjWiczNoE0SNVf88LA,1,Restaurants,4.0,-3.1282866,-60.0325737,,R. 10 de Julho 203,Manaus,BR,AM,11415.26,
Scarola Pizzaria,False,https://www.yelp.com/biz/scarola-pizzaria-manaus?adjust_creative=CBM7ZjWiczNoE0SNVf88LA&utm_campaign=yelp_api_v3&utm_medium=api_v3_business_search&utm_source=CBM7ZjWiczNoE0SNVf88LA,2,Pizza,4.5,-3.1298151,-60.0208549,$,R. 10 de Julho 739,Manaus,BR,AM,11146.34,1.0
Restaurante Alentejo,False,https://www.yelp.com/biz/restaurante-alentejo-manaus?adjust_creative=CBM7ZjWiczNoE0SNVf88LA&utm_campaign=yelp_api_v3&utm_medium=api_v3_business_search&utm_source=CBM7ZjWiczNoE0SNVf88LA,1,Restaurants,4.0,-3.1079259,-60.0256233,,R. Pará 555,Manaus,BR,AM,9328.21,
Churrascaria Gaucho's,False,https://www.yelp.com/biz/churrascaria-gauchos-manaus?adjust_creative=CBM7ZjWiczNoE0SNVf88LA&utm_campaign=yelp_api_v3&utm_medium=api_v3_business_search&utm_source=CBM7ZjWiczNoE0SNVf88LA,2,Steakhouses,2.5,-3.1125672,-60.0111694,,R. Terezina 568,Manaus,BR,AM,8974.78,
Tacacaria Amazônia,False,https://www.yelp.com/biz/tacacaria-amaz%C3%B4nia-manaus?adjust_creative=CBM7ZjWiczNoE0SNVf88LA&utm_campaign=yelp_api_v3&utm_medium=api_v3_business_search&utm_source=CBM7ZjWiczNoE0SNVf88LA,2,Brazilian,3.0,-3.12981571253672,-60.0230084359646,,"R. 10 de Julho, 503",Manaus,BR,AM,11311.26,
Restaurante Canto do Pará,False,https://www.yelp.com/biz/restaurante-canto-do-par%C3%A1-manaus?adjust_creative=CBM7ZjWiczNoE0SNVf88LA&utm_campaign=yelp_api_v3&utm_medium=api_v3_business_search&utm_source=CBM7ZjWiczNoE0SNVf88LA,1,Restaurants,5.0,-3.06861,-60.0540199,,Av. Amsterdam 3 qd 15,Manaus,BR,AM,10060.31,
Domus Enogastronomia,False,https://www.yelp.com/biz/domus-enogastronomia-manaus?adjust_creative=CBM7ZjWiczNoE0SNVf88LA&utm_campaign=yelp_api_v3&utm_medium=api_v3_business_search&utm_source=CBM7ZjWiczNoE0SNVf88LA,1,Restaurants,5.0,-3.1033399,-60.0203514,,Av. Rio Madeira 128 qd 64,Manaus,BR,AM,8420.97,
Marisco & Cia,False,https://www.yelp.com/biz/marisco-e-cia-manaus?adjust_creative=CBM7ZjWiczNoE0SNVf88LA&utm_campaign=yelp_api_v3&utm_medium=api_v3_business_search&utm_source=CBM7ZjWiczNoE0SNVf88LA,1,Seafood,4.0,-3.0940707,-60.0115814,,R. Pará 185,Manaus,BR,AM,7382.04,
Bob's - Airport,False,https://www.yelp.com/biz/bobs-airport-manaus?adjust_creative=CBM7ZjWiczNoE0SNVf88LA&utm_campaign=yelp_api_v3&utm_medium=api_v3_business_search&utm_source=CBM7ZjWiczNoE0SNVf88LA,1,Burgers,5.0,-3.0294288,-60.042371,,Av. Santos Dumont 2441,Manaus,BR,AM,8480.74,
Porão do Alemão,False,https://www.yelp.com/biz/por%C3%A3o-do-alem%C3%A3o-manaus?adjust_creative=CBM7ZjWiczNoE0SNVf88LA&utm_campaign=yelp_api_v3&utm_medium=api_v3_business_search&utm_source=CBM7ZjWiczNoE0SNVf88LA,2,Restaurants,3.5,-3.0722599,-60.0887489,,Bc Ponta Negra 1986,Manaus,BR,AM,10692.05,
Casa da Sopa,False,https://www.yelp.com/biz/casa-da-sopa-manaus?adjust_creative=CBM7ZjWiczNoE0SNVf88LA&utm_campaign=yelp_api_v3&utm_medium=api_v3_business_search&utm_source=CBM7ZjWiczNoE0SNVf88LA,1,Restaurants,5.0,-3.0970185,-59.9961205,,Av. Constelação 22,Manaus,BR,AM,6813.06,
Precioska,False,https://www.yelp.com/biz/precioska-manaus?adjust_creative=CBM7ZjWiczNoE0SNVf88LA&utm_campaign=yelp_api_v3&utm_medium=api_v3_business_search&utm_source=CBM7ZjWiczNoE0SNVf88LA,1,Modern European,5.0,-3.10877215021283,-60.0172467157245,,"Av. Rio Jamary, 28",Manaus,BR,AM,9030.85,
Café Do Ponto,False,https://www.yelp.com/biz/caf%C3%A9-do-ponto-manaus-3?adjust_creative=CBM7ZjWiczNoE0SNVf88LA&utm_campaign=yelp_api_v3&utm_medium=api_v3_business_search&utm_source=CBM7ZjWiczNoE0SNVf88LA,1,"Cafes, Coffee & Tea",4.0,-3.1039792,-60.0134609,,Centro Comercial Manauara,Manaus,BR,AM,8274.21,
Felicori Gastronomia,False,https://www.yelp.com/biz/felicori-gastronomia-manaus?adjust_creative=CBM7ZjWiczNoE0SNVf88LA&utm_campaign=yelp_api_v3&utm_medium=api_v3_business_search&utm_source=CBM7ZjWiczNoE0SNVf88LA,1,"Italian, Brazilian",4.0,-3.10927,-60.01217,,"R. Natal, 191",Manaus,BR,AM,8735.78,
Splash Pizza,False,https://www.yelp.com/biz/splash-pizza-manaus-3?adjust_creative=CBM7ZjWiczNoE0SNVf88LA&utm_campaign=yelp_api_v3&utm_medium=api_v3_business_search&utm_source=CBM7ZjWiczNoE0SNVf88LA,3,Pizza,2.0,-3.130926773726,-60.0237251429239,$,"R. José Clemente, 500",Manaus,BR,AM,11458.21,1.0
Totellinis,False,https://www.yelp.com/biz/totellinis-manaus?adjust_creative=CBM7ZjWiczNoE0SNVf88LA&utm_campaign=yelp_api_v3&utm_medium=api_v3_business_search&utm_source=CBM7ZjWiczNoE0SNVf88LA,1,Italian,4.0,-3.1190275,-60.0217314,,"R. Recife, 1005",Manaus,BR,AM,10242.08,
Lanche do Márcio,False,https://www.yelp.com/biz/lanche-do-m%C3%A1rcio-manaus?adjust_creative=CBM7ZjWiczNoE0SNVf88LA&utm_campaign=yelp_api_v3&utm_medium=api_v3_business_search&utm_source=CBM7ZjWiczNoE0SNVf88LA,1,Diners,4.0,-3.0140164,-60.000885,,Av. Liberdade 395,Manaus,BR,AM,11865.83,
Peixaria Poraque-Campos Elisios,False,https://www.yelp.com/biz/peixaria-poraque-campos-elisios-manaus?adjust_creative=CBM7ZjWiczNoE0SNVf88LA&utm_campaign=yelp_api_v3&utm_medium=api_v3_business_search&utm_source=CBM7ZjWiczNoE0SNVf88LA,1,Restaurants,1.0,-3.062978,-60.0471793,,Rua Santiago 17,Manaus,BR,AM,9081.99,
Restaurante Canto da Peixada,False,https://www.yelp.com/biz/restaurante-canto-da-peixada-manaus?adjust_creative=CBM7ZjWiczNoE0SNVf88LA&utm_campaign=yelp_api_v3&utm_medium=api_v3_business_search&utm_source=CBM7ZjWiczNoE0SNVf88LA,2,Restaurants,2.5,-3.130784,-60.0154564,$$$,Rua Emílio Moreira 1677,Manaus,BR,AM,10971.15,3.0
Caboco Café,False,https://www.yelp.com/biz/caboco-caf%C3%A9-manaus?adjust_creative=CBM7ZjWiczNoE0SNVf88LA&utm_campaign=yelp_api_v3&utm_medium=api_v3_business_search&utm_source=CBM7ZjWiczNoE0SNVf88LA,1,Cafes,4.0,-3.10365,-60.02096,,"R. Rio Purús, 26",Manaus,BR,AM,8853.34,
Lo de Maria,False,https://www.yelp.com/biz/lo-de-maria-manaus?adjust_creative=CBM7ZjWiczNoE0SNVf88LA&utm_campaign=yelp_api_v3&utm_medium=api_v3_business_search&utm_source=CBM7ZjWiczNoE0SNVf88LA,1,Brazilian,1.0,-3.10539,-60.01907,,"R. Acre, 108",Manaus,BR,AM,9132.08,
Loppiano Pizza,False,https://www.yelp.com/biz/loppiano-pizza-manaus-2?adjust_creative=CBM7ZjWiczNoE0SNVf88LA&utm_campaign=yelp_api_v3&utm_medium=api_v3_business_search&utm_source=CBM7ZjWiczNoE0SNVf88LA,1,Pizza,4.0,-3.1175449,-60.0168533,,Av. Ayrão 1070,Manaus,BR,AM,9800.26,
Restaurante Fiorentina,False,https://www.yelp.com/biz/restaurante-fiorentina-manaus-2?adjust_creative=CBM7ZjWiczNoE0SNVf88LA&utm_campaign=yelp_api_v3&utm_medium=api_v3_business_search&utm_source=CBM7ZjWiczNoE0SNVf88LA,1,Restaurants,5.0,-3.1094401,-60.0236893,,Av. Djalma Batista 220,Manaus,BR,AM,7267.01,
Coliseu Pizza,False,https://www.yelp.com/biz/coliseu-pizza-manaus?adjust_creative=CBM7ZjWiczNoE0SNVf88LA&utm_campaign=yelp_api_v3&utm_medium=api_v3_business_search&utm_source=CBM7ZjWiczNoE0SNVf88LA,1,Pizza,3.0,-3.0936058,-60.0095901,,R. Pará 438,Manaus,BR,AM,7173.3,
Rei do Churrasco,False,https://www.yelp.com/biz/rei-do-churrasco-manaus-2?adjust_creative=CBM7ZjWiczNoE0SNVf88LA&utm_campaign=yelp_api_v3&utm_medium=api_v3_business_search&utm_source=CBM7ZjWiczNoE0SNVf88LA,1,Steakhouses,2.0,-3.128202,-60.0078964,,"Av. Presidente Castelo Branco, 839",Manaus,BR,AM,9896.55,
Pizzaria Morada do Sol,False,https://www.yelp.com/biz/pizzaria-morada-do-sol-manaus?adjust_creative=CBM7ZjWiczNoE0SNVf88LA&utm_campaign=yelp_api_v3&utm_medium=api_v3_business_search&utm_source=CBM7ZjWiczNoE0SNVf88LA,1,Italian,1.0,-3.0922152,-59.9886115,,Av Efigênio Sales 3050,Manaus,BR,AM,5798.67,
Casa de Tereza,False,https://www.yelp.com/biz/casa-de-tereza-salvador?adjust_creative=CBM7ZjWiczNoE0SNVf88LA&utm_campaign=yelp_api_v3&utm_medium=api_v3_business_search&utm_source=CBM7ZjWiczNoE0SNVf88LA,24,Northern Brazilian,4.5,-13.01394,-38.48764,$$$$,"R. Odilon Santos, 45",Salvador,BR,BA,6165.25,4.0
Restaurante Paraíso Tropical,False,https://www.yelp.com/biz/restaurante-para%C3%ADso-tropical-salvador-3?adjust_creative=CBM7ZjWiczNoE0SNVf88LA&utm_campaign=yelp_api_v3&utm_medium=api_v3_business_search&utm_source=CBM7ZjWiczNoE0SNVf88LA,18,"Brazilian, Seafood",4.5,-12.960216,-38.46352,$$$,"R. Edgard Loureiro, 98",Salvador,BR,BA,888.41,3.0
Mistura,False,https://www.yelp.com/biz/mistura-salvador-2?adjust_creative=CBM7ZjWiczNoE0SNVf88LA&utm_campaign=yelp_api_v3&utm_medium=api_v3_business_search&utm_source=CBM7ZjWiczNoE0SNVf88LA,9,"Seafood, Brazilian, Mediterranean",4.5,-12.954527,-38.354919,$$$,"R. Prof. Souza Brito, 41",Salvador,BR,BA,11283.14,3.0
Maria Mata Mouro,False,https://www.yelp.com/biz/maria-mata-mouro-salvador?adjust_creative=CBM7ZjWiczNoE0SNVf88LA&utm_campaign=yelp_api_v3&utm_medium=api_v3_business_search&utm_source=CBM7ZjWiczNoE0SNVf88LA,12,"Brazilian, Seafood",4.0,-12.974108,-38.508694,$$$,"R. da Ordem Terceira, 8",Salvador,BR,BA,5524.42,3.0
Amado,False,https://www.yelp.com/biz/amado-salvador?adjust_creative=CBM7ZjWiczNoE0SNVf88LA&utm_campaign=yelp_api_v3&utm_medium=api_v3_business_search&utm_source=CBM7ZjWiczNoE0SNVf88LA,13,"Brazilian, Seafood, Mediterranean",4.0,-12.978486,-38.517276,$$$$,"Av. Lafayete Coutinho, 660",Salvador,BR,BA,6527.25,4.0
Soho,False,https://www.yelp.com/biz/soho-salvador?adjust_creative=CBM7ZjWiczNoE0SNVf88LA&utm_campaign=yelp_api_v3&utm_medium=api_v3_business_search&utm_source=CBM7ZjWiczNoE0SNVf88LA,16,"Sushi Bars, Japanese, Asian Fusion",4.5,-12.9808045,-38.5188276,$$$,"Av. Contorno, 1010",Salvador,BR,BA,6748.34,3.0
Bar Zulu,False,https://www.yelp.com/biz/bar-zulu-salvador?adjust_creative=CBM7ZjWiczNoE0SNVf88LA&utm_campaign=yelp_api_v3&utm_medium=api_v3_business_search&utm_source=CBM7ZjWiczNoE0SNVf88LA,5,"Bars, Tapas Bars",4.5,-12.9742131493768,-38.5082830488682,$$,"R. das Laranjeiras, 16",Salvador,BR,BA,5482.28,2.0
Chez Bernard,False,https://www.yelp.com/biz/chez-bernard-salvador?adjust_creative=CBM7ZjWiczNoE0SNVf88LA&utm_campaign=yelp_api_v3&utm_medium=api_v3_business_search&utm_source=CBM7ZjWiczNoE0SNVf88LA,5,"French, Seafood",5.0,-12.9703817,-38.512382,$$$$,"R. Gamboa de Cima, 11",Salvador,BR,BA,5873.91,4.0
Pereira Restaurante,False,https://www.yelp.com/biz/pereira-restaurante-salvador?adjust_creative=CBM7ZjWiczNoE0SNVf88LA&utm_campaign=yelp_api_v3&utm_medium=api_v3_business_search&utm_source=CBM7ZjWiczNoE0SNVf88LA,12,Modern European,4.0,-13.005523,-38.53261,$$$,"Av. Sete de Setembro, 3959",Salvador,BR,BA,9148.97,3.0
Barbacoa Salvador,False,https://www.yelp.com/biz/barbacoa-salvador-salvador?adjust_creative=CBM7ZjWiczNoE0SNVf88LA&utm_campaign=yelp_api_v3&utm_medium=api_v3_business_search&utm_source=CBM7ZjWiczNoE0SNVf88LA,3,Restaurants,4.0,-12.9807396,-38.4654617,$$$$,Av. Tancredo Neves 909,Salvador,BR,BA,1501.36,4.0
Cuco Bistrô,False,https://www.yelp.com/biz/cuco-bistr%C3%B4-salvador?adjust_creative=CBM7ZjWiczNoE0SNVf88LA&utm_campaign=yelp_api_v3&utm_medium=api_v3_business_search&utm_source=CBM7ZjWiczNoE0SNVf88LA,10,"Spanish, Brazilian, Bistros",4.5,-12.9737968,-38.5094528,$$$,"Largo do Cruzeiro de São Franscico, 6",Salvador,BR,BA,5595.26,3.0
Parrilla Argentina La Pulperia,False,https://www.yelp.com/biz/parrilla-argentina-la-pulperia-salvador?adjust_creative=CBM7ZjWiczNoE0SNVf88LA&utm_campaign=yelp_api_v3&utm_medium=api_v3_business_search&utm_source=CBM7ZjWiczNoE0SNVf88LA,8,"Argentine, Steakhouses",5.0,-12.9912442559902,-38.493400882838,$$,"R. Novo Horizonte, 39",Salvador,BR,BA,4698.29,2.0
Mamma's House,False,https://www.yelp.com/biz/mammas-house-salvador?adjust_creative=CBM7ZjWiczNoE0SNVf88LA&utm_campaign=yelp_api_v3&utm_medium=api_v3_business_search&utm_source=CBM7ZjWiczNoE0SNVf88LA,8,"Pizza, Italian",5.0,-12.99363,-38.45603,$$,"R. das Margaridas,150",Salvador,BR,BA,3021.55,2.0
Nossa Senhora,False,https://www.yelp.com/biz/nossa-senhora-salvador?adjust_creative=CBM7ZjWiczNoE0SNVf88LA&utm_campaign=yelp_api_v3&utm_medium=api_v3_business_search&utm_source=CBM7ZjWiczNoE0SNVf88LA,3,Brazilian,4.5,-13.0094666723587,-38.5247980803251,$$$,"R. Manoel Vitorino, 18",Salvador,BR,BA,8648.81,3.0
Terra Brasil,False,https://www.yelp.com/biz/terra-brasil-salvador?adjust_creative=CBM7ZjWiczNoE0SNVf88LA&utm_campaign=yelp_api_v3&utm_medium=api_v3_business_search&utm_source=CBM7ZjWiczNoE0SNVf88LA,4,"Seafood, Brazilian",5.0,-12.9801912,-38.450532,$$$$,"Av. Tancredo Neves, 2915",Salvador,BR,BA,1376.05,4.0
Il Póllo Grill,False,https://www.yelp.com/biz/il-p%C3%B3llo-grill-salvador?adjust_creative=CBM7ZjWiczNoE0SNVf88LA&utm_campaign=yelp_api_v3&utm_medium=api_v3_business_search&utm_source=CBM7ZjWiczNoE0SNVf88LA,5,"Steakhouses, Brazilian",4.5,-12.9781802465918,-38.4556941041992,$$,"Avenida Tancredo Neves, 3133, L3",Salvador,BR,BA,1340.68,2.0
Odoyá,False,https://www.yelp.com/biz/odoy%C3%A1-salvador?adjust_creative=CBM7ZjWiczNoE0SNVf88LA&utm_campaign=yelp_api_v3&utm_medium=api_v3_business_search&utm_source=CBM7ZjWiczNoE0SNVf88LA,10,"Seafood, Imported Food",4.0,-12.973877,-38.5097351,$$$,"Largo do Cruzeiro de São Francisco, 1 Pelourinho",Salvador,BR,BA,5587.11,3.0
Oriente Fast,False,https://www.yelp.com/biz/oriente-fast-salvador-3?adjust_creative=CBM7ZjWiczNoE0SNVf88LA&utm_campaign=yelp_api_v3&utm_medium=api_v3_business_search&utm_source=CBM7ZjWiczNoE0SNVf88LA,25,"Sushi Bars, Food Delivery Services, Asian Fusion",4.5,-13.0129037,-38.490976,$$,"R. Borges dos Reis, 46",Salvador,BR,BA,6261.43,2.0
Cabana da Cely,False,https://www.yelp.com/biz/cabana-da-cely-salvador-6?adjust_creative=CBM7ZjWiczNoE0SNVf88LA&utm_campaign=yelp_api_v3&utm_medium=api_v3_business_search&utm_source=CBM7ZjWiczNoE0SNVf88LA,5,Seafood,5.0,-13.0137501,-38.4859734,,"Rua Fonte do Boi, 32, Rio Vermelho",Salvador,BR,BA,6046.39,
Restaurante Salvador Dali,False,https://www.yelp.com/biz/restaurante-salvador-dali-salvador-2?adjust_creative=CBM7ZjWiczNoE0SNVf88LA&utm_campaign=yelp_api_v3&utm_medium=api_v3_business_search&utm_source=CBM7ZjWiczNoE0SNVf88LA,8,"Brazilian, French, Taiwanese",4.5,-13.0125141,-38.4909477,$$$,"R. Borges dos Reis, 11",Salvador,BR,BA,6268.72,3.0
Sal e Brasa Churrascaria,False,https://www.yelp.com/biz/sal-e-brasa-churrascaria-salvador-2?adjust_creative=CBM7ZjWiczNoE0SNVf88LA&utm_campaign=yelp_api_v3&utm_medium=api_v3_business_search&utm_source=CBM7ZjWiczNoE0SNVf88LA,20,"Steakhouses, Buffets, Seafood",4.0,-12.970685,-38.4128823,$$,"R. Carimbamba, 917",Salvador,BR,BA,4947.46,2.0
La Taperia,False,https://www.yelp.com/biz/la-taperia-salvador-2?adjust_creative=CBM7ZjWiczNoE0SNVf88LA&utm_campaign=yelp_api_v3&utm_medium=api_v3_business_search&utm_source=CBM7ZjWiczNoE0SNVf88LA,9,"Spanish, Tapas Bars",5.0,-13.0109115,-38.4944432,$$,"R. Da Paciencia, 251",Salvador,BR,BA,6305.42,2.0
Boi Preto Prime,False,https://www.yelp.com/biz/boi-preto-prime-salvador?adjust_creative=CBM7ZjWiczNoE0SNVf88LA&utm_campaign=yelp_api_v3&utm_medium=api_v3_business_search&utm_source=CBM7ZjWiczNoE0SNVf88LA,13,"Steakhouses, Buffets",4.5,-12.983576,-38.435044,$$$$,"Av. Octávio Mangabeira, 5095",Salvador,BR,BA,3164.37,4.0
A Porteira Express,False,https://www.yelp.com/biz/a-porteira-express-salvador-3?adjust_creative=CBM7ZjWiczNoE0SNVf88LA&utm_campaign=yelp_api_v3&utm_medium=api_v3_business_search&utm_source=CBM7ZjWiczNoE0SNVf88LA,5,"Northeastern Brazilian, Steakhouses, Burgers",5.0,-12.9752054,-38.488533,$$$,"Rua Portugal, 21",Salvador,BR,BA,5870.97,3.0
Poró,False,https://www.yelp.com/biz/por%C3%B3-salvador?adjust_creative=CBM7ZjWiczNoE0SNVf88LA&utm_campaign=yelp_api_v3&utm_medium=api_v3_business_search&utm_source=CBM7ZjWiczNoE0SNVf88LA,6,Brazilian,4.0,-12.9683348,-38.5072621,,"R. do Carmo, 13",Salvador,BR,BA,5297.46,
Boteco do Pirí,False,https://www.yelp.com/biz/boteco-do-pir%C3%AD-salvador?adjust_creative=CBM7ZjWiczNoE0SNVf88LA&utm_campaign=yelp_api_v3&utm_medium=api_v3_business_search&utm_source=CBM7ZjWiczNoE0SNVf88LA,6,"Seafood, Brazilian",4.5,-13.0073365,-38.4619767,$$,"Rua Paraíba, 250",Salvador,BR,BA,4569.1,2.0
Restaurante Casa do Comércio,False,https://www.yelp.com/biz/restaurante-casa-do-com%C3%A9rcio-salvador?adjust_creative=CBM7ZjWiczNoE0SNVf88LA&utm_campaign=yelp_api_v3&utm_medium=api_v3_business_search&utm_source=CBM7ZjWiczNoE0SNVf88LA,5,Brazilian,4.5,-12.98039,-38.45652,$$$,"Av. Tancredo Neves, 1109",Salvador,BR,BA,1559.66,3.0
Zafferano,False,https://www.yelp.com/biz/zafferano-salvador-2?adjust_creative=CBM7ZjWiczNoE0SNVf88LA&utm_campaign=yelp_api_v3&utm_medium=api_v3_business_search&utm_source=CBM7ZjWiczNoE0SNVf88LA,6,Italian,5.0,-12.9946203,-38.47892,$$$$,"Rua Leonor Calmon, 256 - Candeal",Salvador,BR,BA,3839.34,4.0
Cantina da Lua,False,https://www.yelp.com/biz/cantina-da-lua-salvador?adjust_creative=CBM7ZjWiczNoE0SNVf88LA&utm_campaign=yelp_api_v3&utm_medium=api_v3_business_search&utm_source=CBM7ZjWiczNoE0SNVf88LA,8,"Restaurants, Food",4.5,-12.9733496,-38.5094795,$$,Lgo. Terreiro Jesus 2,Salvador,BR,BA,5610.45,2.0
Adam Cozinha Originária,False,https://www.yelp.com/biz/adam-cozinha-origin%C3%A1ria-salvador?adjust_creative=CBM7ZjWiczNoE0SNVf88LA&utm_campaign=yelp_api_v3&utm_medium=api_v3_business_search&utm_source=CBM7ZjWiczNoE0SNVf88LA,11,"Italian, Modern European",4.5,-12.9929039311395,-38.4627804257943,$$,"R. Edith Mendes da Gama e Abreu, 189",Salvador,BR,BA,2986.36,2.0
Bonzai,False,https://www.yelp.com/biz/bonzai-salvador?adjust_creative=CBM7ZjWiczNoE0SNVf88LA&utm_campaign=yelp_api_v3&utm_medium=api_v3_business_search&utm_source=CBM7ZjWiczNoE0SNVf88LA,7,Japanese,4.5,-12.970075,-38.473906,$,"Alameda Euvaldo Luz, 92",Salvador,BR,BA,1736.76,1.0
Veleiro,False,https://www.yelp.com/biz/veleiro-barra?adjust_creative=CBM7ZjWiczNoE0SNVf88LA&utm_campaign=yelp_api_v3&utm_medium=api_v3_business_search&utm_source=CBM7ZjWiczNoE0SNVf88LA,1,"Brazilian, Seafood",5.0,-13.0053228558619,-38.5331231975941,,Yacht Clube da Bahia,Salvador,BR,BA,9187.42,
Além do Cais,False,https://www.yelp.com/biz/al%C3%A9m-do-cais-salvador-2?adjust_creative=CBM7ZjWiczNoE0SNVf88LA&utm_campaign=yelp_api_v3&utm_medium=api_v3_business_search&utm_source=CBM7ZjWiczNoE0SNVf88LA,3,"Specialty Food, Brazilian",4.5,-12.9653835,-38.50494,$$$,"R. Direita do Santo Antônio, 97",Salvador,BR,BA,4962.31,3.0
Ki-Mukeka,False,https://www.yelp.com/biz/ki-mukeka-salvador-5?adjust_creative=CBM7ZjWiczNoE0SNVf88LA&utm_campaign=yelp_api_v3&utm_medium=api_v3_business_search&utm_source=CBM7ZjWiczNoE0SNVf88LA,21,Brazilian,4.0,-12.991892,-38.439039,$$$,"Av. Octávio Mangabeira, 136",Salvador,BR,BA,3521.85,3.0
Pasta em Casa,False,https://www.yelp.com/biz/pasta-em-casa-salvador?adjust_creative=CBM7ZjWiczNoE0SNVf88LA&utm_campaign=yelp_api_v3&utm_medium=api_v3_business_search&utm_source=CBM7ZjWiczNoE0SNVf88LA,10,Italian,4.5,-13.0128298,-38.49086,$$,Rua Borges dos Reis 456-558,Salvador,BR,BA,6260.93,2.0
Caranguejo do Sergipe,False,https://www.yelp.com/biz/caranguejo-do-sergipe-salvador-2?adjust_creative=CBM7ZjWiczNoE0SNVf88LA&utm_campaign=yelp_api_v3&utm_medium=api_v3_business_search&utm_source=CBM7ZjWiczNoE0SNVf88LA,7,"Seafood, Northeastern Brazilian",4.0,-12.9703817,-38.512382,$$,"Av Otávio Mangabeira, 222",Salvador,BR,BA,5873.91,2.0
Tokai Gourmet,False,https://www.yelp.com/biz/tokai-gourmet-salvador-2?adjust_creative=CBM7ZjWiczNoE0SNVf88LA&utm_campaign=yelp_api_v3&utm_medium=api_v3_business_search&utm_source=CBM7ZjWiczNoE0SNVf88LA,4,"Japanese, Thai, Chinese",4.5,-13.0063966034749,-38.5235770046711,$$$,CC Barra,Salvador,BR,BA,8352.33,3.0
Tijupá Restaurante e Bar,False,https://www.yelp.com/biz/tijup%C3%A1-restaurante-e-bar-ribeira?adjust_creative=CBM7ZjWiczNoE0SNVf88LA&utm_campaign=yelp_api_v3&utm_medium=api_v3_business_search&utm_source=CBM7ZjWiczNoE0SNVf88LA,1,"Bars, Seafood, Imported Food",5.0,-12.9165553130889,-38.4941528365016,,"Avenida Mem de Sá, n 9. Ribeira",Salvador,BR,BA,6766.9,
Spoleto,False,https://www.yelp.com/biz/spoleto-salvador-2?adjust_creative=CBM7ZjWiczNoE0SNVf88LA&utm_campaign=yelp_api_v3&utm_medium=api_v3_business_search&utm_source=CBM7ZjWiczNoE0SNVf88LA,2,Restaurants,4.5,-12.9784079,-38.46138,,Av. Tancredo Neves 148 qd Z3 lj 21,Salvador,BR,BA,1833.69,
Riz Bistrot & Risottos,False,https://www.yelp.com/biz/riz-bistrot-e-risottos-salvador?adjust_creative=CBM7ZjWiczNoE0SNVf88LA&utm_campaign=yelp_api_v3&utm_medium=api_v3_business_search&utm_source=CBM7ZjWiczNoE0SNVf88LA,7,"Mediterranean, Bistros",4.0,-12.990365,-38.4610634,$$$,"R. das Hortênsias, 966",Salvador,BR,BA,2682.36,3.0
Espaço Cultural D'Venetta,False,https://www.yelp.com/biz/espa%C3%A7o-cultural-d-venetta-salvador?adjust_creative=CBM7ZjWiczNoE0SNVf88LA&utm_campaign=yelp_api_v3&utm_medium=api_v3_business_search&utm_source=CBM7ZjWiczNoE0SNVf88LA,11,"Bars, Music Venues, Northeastern Brazilian",4.5,-12.9655733,-38.5043907,$$,Rua dos Adôbes 12,Salvador,BR,BA,5034.95,2.0
Pysco Resto Bar,False,https://www.yelp.com/biz/pysco-resto-bar-salvador?adjust_creative=CBM7ZjWiczNoE0SNVf88LA&utm_campaign=yelp_api_v3&utm_medium=api_v3_business_search&utm_source=CBM7ZjWiczNoE0SNVf88LA,7,Mediterranean,4.5,-12.9703493,-38.5078773,$$,"Ladeira do Carmo, 7, Santo Antonio",Salvador,BR,BA,5390.81,2.0
Mahi Mahi,False,https://www.yelp.com/biz/mahi-mahi-salvador?adjust_creative=CBM7ZjWiczNoE0SNVf88LA&utm_campaign=yelp_api_v3&utm_medium=api_v3_business_search&utm_source=CBM7ZjWiczNoE0SNVf88LA,6,Seafood,4.5,-12.9914198,-38.5254135,,"Av 7 De Setembro, 2068",Salvador,BR,BA,7795.6,
Empada Brasil,False,https://www.yelp.com/biz/empada-brasil-salvador-6?adjust_creative=CBM7ZjWiczNoE0SNVf88LA&utm_campaign=yelp_api_v3&utm_medium=api_v3_business_search&utm_source=CBM7ZjWiczNoE0SNVf88LA,5,Diners,4.5,-12.9842548,-38.4505272,,"R. Dr. José Peroba, 297, Lj 04",Salvador,BR,BA,2201.23,
Ki Camarão,False,https://www.yelp.com/biz/ki-camar%C3%A3o-salvador?adjust_creative=CBM7ZjWiczNoE0SNVf88LA&utm_campaign=yelp_api_v3&utm_medium=api_v3_business_search&utm_source=CBM7ZjWiczNoE0SNVf88LA,7,"Brazilian, Seafood",4.5,-12.935311,-38.422125,$$,"Av. São Rafael, 1",Salvador,BR,BA,5228.93,2.0
Acarajé de Jandira,False,https://www.yelp.com/biz/acaraj%C3%A9-de-jandira-salvador?adjust_creative=CBM7ZjWiczNoE0SNVf88LA&utm_campaign=yelp_api_v3&utm_medium=api_v3_business_search&utm_source=CBM7ZjWiczNoE0SNVf88LA,1,"African, Street Vendors, Imported Food",5.0,-12.9280138,-38.5103722,$,"Rua da Imperatriz, 199 - Boa Viagem",Salvador,BR,BA,6992.53,1.0
O Picuí,False,https://www.yelp.com/biz/o-picu%C3%AD-salvador?adjust_creative=CBM7ZjWiczNoE0SNVf88LA&utm_campaign=yelp_api_v3&utm_medium=api_v3_business_search&utm_source=CBM7ZjWiczNoE0SNVf88LA,7,Northeastern Brazilian,4.5,-12.9873304,-38.4362488,$$,R. Melvin Jones 91,Salvador,BR,BA,3390.24,2.0
BahiaCafé Hotel,False,https://www.yelp.com/biz/bahiacaf%C3%A9-hotel-salvador?adjust_creative=CBM7ZjWiczNoE0SNVf88LA&utm_campaign=yelp_api_v3&utm_medium=api_v3_business_search&utm_source=CBM7ZjWiczNoE0SNVf88LA,5,"Hotels, Cafes",4.0,-12.9738646,-38.5110779,$$,"Praça da Sé, 22 - Centro",Salvador,BR,BA,5766.09,2.0
Dona Mariquita,False,https://www.yelp.com/biz/dona-mariquita-salvador?adjust_creative=CBM7ZjWiczNoE0SNVf88LA&utm_campaign=yelp_api_v3&utm_medium=api_v3_business_search&utm_source=CBM7ZjWiczNoE0SNVf88LA,5,"Seafood, Northeastern Brazilian",5.0,-13.0128441,-38.4865799,$$$,"R. do Meio, 178",Salvador,BR,BA,6031.86,3.0
Caminho de Casa,False,https://www.yelp.com/biz/caminho-de-casa-salvador?adjust_creative=CBM7ZjWiczNoE0SNVf88LA&utm_campaign=yelp_api_v3&utm_medium=api_v3_business_search&utm_source=CBM7ZjWiczNoE0SNVf88LA,9,Northeastern Brazilian,4.0,-12.995486,-38.46479,$$,"R. Anísio Teixeira, 161",Salvador,BR,BA,3309.17,2.0
Conversa Fiada Bar e Restaurante,False,https://www.yelp.com/biz/conversa-fiada-bar-e-restaurante-salvador-3?adjust_creative=CBM7ZjWiczNoE0SNVf88LA&utm_campaign=yelp_api_v3&utm_medium=api_v3_business_search&utm_source=CBM7ZjWiczNoE0SNVf88LA,14,"Brazilian, Beer Bar",4.0,-12.986972,-38.4481208130785,$$,"R. Artur de Azevedo Machado, 1909",Salvador,BR,BA,2540.9,2.0
Sal Marinho,False,https://www.yelp.com/biz/sal-marinho-salvador?adjust_creative=CBM7ZjWiczNoE0SNVf88LA&utm_campaign=yelp_api_v3&utm_medium=api_v3_business_search&utm_source=CBM7ZjWiczNoE0SNVf88LA,11,"Brazilian, Gastropubs",4.5,-12.9999485,-38.4567604,$$,"R. Território do Rio Branco, 219",Salvador,BR,BA,3733.22,2.0
Carro de Boi,False,https://www.yelp.com/biz/carro-de-boi-salvador-4?adjust_creative=CBM7ZjWiczNoE0SNVf88LA&utm_campaign=yelp_api_v3&utm_medium=api_v3_business_search&utm_source=CBM7ZjWiczNoE0SNVf88LA,3,"Brazilian, Steakhouses",4.5,-12.9785593917598,-38.4551357817373,$$,"Av. Tancredo Neves, 3133",Salvador,BR,BA,1395.65,2.0
Beach Stop,False,https://www.yelp.com/biz/beach-stop-salvador-2?adjust_creative=CBM7ZjWiczNoE0SNVf88LA&utm_campaign=yelp_api_v3&utm_medium=api_v3_business_search&utm_source=CBM7ZjWiczNoE0SNVf88LA,11,Restaurants,4.5,-12.9178495,-38.3469887,$$,R. Stella Maris 214,Salvador,BR,BA,14378.79,2.0
Berlim Café,False,https://www.yelp.com/biz/berlim-caf%C3%A9-salvador-2?adjust_creative=CBM7ZjWiczNoE0SNVf88LA&utm_campaign=yelp_api_v3&utm_medium=api_v3_business_search&utm_source=CBM7ZjWiczNoE0SNVf88LA,6,"Salad, German, Cafes",4.0,-12.989459,-38.52388,$$$,"Av. Sete de Setembro, 1809",Salvador,BR,BA,7551.47,3.0
Al Mare,False,https://www.yelp.com/biz/al-mare-salvador?adjust_creative=CBM7ZjWiczNoE0SNVf88LA&utm_campaign=yelp_api_v3&utm_medium=api_v3_business_search&utm_source=CBM7ZjWiczNoE0SNVf88LA,8,Seafood,4.0,-12.978131,-38.454212,$$$$,"Av. Tancredo Neves, 3133",Salvador,BR,BA,1378.62,4.0
San Mei,False,https://www.yelp.com/biz/san-mei-salvador?adjust_creative=CBM7ZjWiczNoE0SNVf88LA&utm_campaign=yelp_api_v3&utm_medium=api_v3_business_search&utm_source=CBM7ZjWiczNoE0SNVf88LA,1,Chinese,5.0,-13.0097013809757,-38.5101863623387,,"R. Baependi, 1",Salvador,BR,BA,7399.65,
Mariposa,False,https://www.yelp.com/biz/mariposa-salvador-3?adjust_creative=CBM7ZjWiczNoE0SNVf88LA&utm_campaign=yelp_api_v3&utm_medium=api_v3_business_search&utm_source=CBM7ZjWiczNoE0SNVf88LA,12,"Japanese, Seafood, Vegetarian",4.5,-12.9796553499248,-38.4536709232838,$$,"Av. Tancredo Neves, 3133, Caminho das Árvores",Salvador,BR,BA,1557.97,2.0
Porto do Moreira,False,https://www.yelp.com/biz/porto-do-moreira-salvador?adjust_creative=CBM7ZjWiczNoE0SNVf88LA&utm_campaign=yelp_api_v3&utm_medium=api_v3_business_search&utm_source=CBM7ZjWiczNoE0SNVf88LA,3,"Northeastern Brazilian, Portuguese",5.0,-12.868618,-38.4749222,$$,"Rua Carlos Gomes, 486, Campo Grande",Salvador,BR,BA,6430.86,2.0
DAS Restaurante,False,https://www.yelp.com/biz/das-restaurante-salvador?adjust_creative=CBM7ZjWiczNoE0SNVf88LA&utm_campaign=yelp_api_v3&utm_medium=api_v3_business_search&utm_source=CBM7ZjWiczNoE0SNVf88LA,1,"Delis, Seafood",5.0,-12.9816277,-38.5195582,$$$,Av. Lafayete Coutinho 1010,Salvador,BR,BA,6847.32,3.0
Restaurante Yemanja,False,https://www.yelp.com/biz/restaurante-yemanja-salvador?adjust_creative=CBM7ZjWiczNoE0SNVf88LA&utm_campaign=yelp_api_v3&utm_medium=api_v3_business_search&utm_source=CBM7ZjWiczNoE0SNVf88LA,10,Restaurants,4.0,-12.9705343,-38.4123802,$$$,Av. Octávio Mangabeira 4661,Salvador,BR,BA,3445.42,3.0
Cosi Buono,False,https://www.yelp.com/biz/cosi-buono-salvador?adjust_creative=CBM7ZjWiczNoE0SNVf88LA&utm_campaign=yelp_api_v3&utm_medium=api_v3_business_search&utm_source=CBM7ZjWiczNoE0SNVf88LA,1,Restaurants,4.0,-12.9873686,-38.4678993,,Av. Antônio Carlos Magalhães 3213 lj 5,Salvador,BR,BA,3099.45,
Mama Bahia,False,https://www.yelp.com/biz/mama-bahia-salvador-2?adjust_creative=CBM7ZjWiczNoE0SNVf88LA&utm_campaign=yelp_api_v3&utm_medium=api_v3_business_search&utm_source=CBM7ZjWiczNoE0SNVf88LA,12,"Brazilian, Seafood, Beer, Wine & Spirits",3.5,-12.9723339,-38.5090561,$$,"R. das Portas do Carmo, 21",Salvador,BR,BA,5548.1,2.0
Frango americano,False,https://www.yelp.com/biz/frango-americano-salvador-3?adjust_creative=CBM7ZjWiczNoE0SNVf88LA&utm_campaign=yelp_api_v3&utm_medium=api_v3_business_search&utm_source=CBM7ZjWiczNoE0SNVf88LA,3,"Chicken Wings, Tapas/Small Plates, American (Traditional)",4.0,-13.0131041223162,-38.4855268523097,,"Praça Brigadeiro Faria Rocha, 2",Salvador,BR,BA,5971.17,
Soho,False,https://www.yelp.com/biz/soho-salvador-2?adjust_creative=CBM7ZjWiczNoE0SNVf88LA&utm_campaign=yelp_api_v3&utm_medium=api_v3_business_search&utm_source=CBM7ZjWiczNoE0SNVf88LA,4,Japanese,4.5,-12.9950056,-38.4712868,$$$$,"R. Rubens Guelli, 135",Salvador,BR,BA,3519.98,4.0
Encontro dos Artistas,False,https://www.yelp.com/biz/encontro-dos-artistas-salvador?adjust_creative=CBM7ZjWiczNoE0SNVf88LA&utm_campaign=yelp_api_v3&utm_medium=api_v3_business_search&utm_source=CBM7ZjWiczNoE0SNVf88LA,1,Restaurants,5.0,-12.9741688,-38.5083733,,"Rua das Laranjeiras 15, Pelourinho",Salvador,BR,BA,5483.27,
Ki-Mukeka,False,https://www.yelp.com/biz/ki-mukeka-salvador-4?adjust_creative=CBM7ZjWiczNoE0SNVf88LA&utm_campaign=yelp_api_v3&utm_medium=api_v3_business_search&utm_source=CBM7ZjWiczNoE0SNVf88LA,9,Brazilian,4.5,-12.954126,-38.350718,$$$,"R. do Vento Sul, s/n",Salvador,BR,BA,11740.48,3.0
Cantina Cosa Nostra,False,https://www.yelp.com/biz/cantina-cosa-nostra-salvador?adjust_creative=CBM7ZjWiczNoE0SNVf88LA&utm_campaign=yelp_api_v3&utm_medium=api_v3_business_search&utm_source=CBM7ZjWiczNoE0SNVf88LA,11,"Italian, Pizza",4.5,-13.004351,-38.4551596,$$,"Rua Bahia, 144",Salvador,BR,BA,4233.94,2.0
Camarote Caranguejo do Porto,False,https://www.yelp.com/biz/camarote-caranguejo-do-porto-salvador?adjust_creative=CBM7ZjWiczNoE0SNVf88LA&utm_campaign=yelp_api_v3&utm_medium=api_v3_business_search&utm_source=CBM7ZjWiczNoE0SNVf88LA,7,"Seafood, Bars",3.5,-13.009479,-38.524522,$$,"Av. Oceânica, 819",Salvador,BR,BA,8624.68,2.0
Ravyolli,False,https://www.yelp.com/biz/ravyolli-salvador?adjust_creative=CBM7ZjWiczNoE0SNVf88LA&utm_campaign=yelp_api_v3&utm_medium=api_v3_business_search&utm_source=CBM7ZjWiczNoE0SNVf88LA,1,Restaurants,5.0,-12.9756298,-38.5134087,,Rua Chile,Salvador,BR,BA,6044.0,
Restaurante Senac,False,https://www.yelp.com/biz/restaurante-senac-pelourinho?adjust_creative=CBM7ZjWiczNoE0SNVf88LA&utm_campaign=yelp_api_v3&utm_medium=api_v3_business_search&utm_source=CBM7ZjWiczNoE0SNVf88LA,3,Restaurants,4.5,-12.9716997,-38.5083084,,"Praça José de Alencar, 13 - Pelourinho",Salvador,BR,BA,5626.56,
Vignoli,False,https://www.yelp.com/biz/vignoli-salvador-2?adjust_creative=CBM7ZjWiczNoE0SNVf88LA&utm_campaign=yelp_api_v3&utm_medium=api_v3_business_search&utm_source=CBM7ZjWiczNoE0SNVf88LA,30,"Pizza, Italian",4.5,-12.9900355,-38.4579017,$$,"Av. Paulo VI, 1659",Salvador,BR,BA,2628.59,2.0
Passeio da Vitória,False,https://www.yelp.com/biz/passeio-da-vit%C3%B3ria-salvador?adjust_creative=CBM7ZjWiczNoE0SNVf88LA&utm_campaign=yelp_api_v3&utm_medium=api_v3_business_search&utm_source=CBM7ZjWiczNoE0SNVf88LA,2,"International, Buffets",4.5,-12.9873104,-38.5213852,$$,"Av. Sete de Setembro, 1537",Salvador,BR,BA,7254.61,2.0
L'Arcangelo Ristorante Italiano,False,https://www.yelp.com/biz/l-arcangelo-ristorante-italiano-salvador?adjust_creative=CBM7ZjWiczNoE0SNVf88LA&utm_campaign=yelp_api_v3&utm_medium=api_v3_business_search&utm_source=CBM7ZjWiczNoE0SNVf88LA,2,"Nightlife, Italian",5.0,-12.974185,-38.508358,,"Rua das Laranjeiras, 17, Pelourinho",Salvador,BR,BA,5473.56,
Cafélier,False,https://www.yelp.com/biz/caf%C3%A9lier-salvador?adjust_creative=CBM7ZjWiczNoE0SNVf88LA&utm_campaign=yelp_api_v3&utm_medium=api_v3_business_search&utm_source=CBM7ZjWiczNoE0SNVf88LA,11,Cafes,4.5,-12.968016,-38.507466,,"R. do Carmo, 50",Salvador,BR,BA,5327.56,
Bar e Restaurante Pedágio do Imbui,False,https://www.yelp.com/biz/bar-e-restaurante-ped%C3%A1gio-do-imbui-salvador?adjust_creative=CBM7ZjWiczNoE0SNVf88LA&utm_campaign=yelp_api_v3&utm_medium=api_v3_business_search&utm_source=CBM7ZjWiczNoE0SNVf88LA,8,"Brazilian, Beer Bar",4.0,-12.969232,-38.437605,$$,"Av. Jorge Amado, 1",Salvador,BR,BA,2267.53,2.0
Caranguejo de Sergipe,False,https://www.yelp.com/biz/caranguejo-de-sergipe-salvador-6?adjust_creative=CBM7ZjWiczNoE0SNVf88LA&utm_campaign=yelp_api_v3&utm_medium=api_v3_business_search&utm_source=CBM7ZjWiczNoE0SNVf88LA,8,"Seafood, Brazilian",3.5,-13.00921,-38.525211,$$$,"Av. Oceânica, s/n",Salvador,BR,BA,8670.41,3.0
Acarajé da Cira,False,https://www.yelp.com/biz/acaraj%C3%A9-da-cira-salvador?adjust_creative=CBM7ZjWiczNoE0SNVf88LA&utm_campaign=yelp_api_v3&utm_medium=api_v3_business_search&utm_source=CBM7ZjWiczNoE0SNVf88LA,27,Food Stands,4.5,-13.013502,-38.488587,$,Largo da Mariquita,Salvador,BR,BA,6179.04,1.0
Boteco do Farol,False,https://www.yelp.com/biz/boteco-do-farol-salvador?adjust_creative=CBM7ZjWiczNoE0SNVf88LA&utm_campaign=yelp_api_v3&utm_medium=api_v3_business_search&utm_source=CBM7ZjWiczNoE0SNVf88LA,4,"Cocktail Bars, Dive Bars, Gastropubs",4.0,-13.0100204130546,-38.5315237643446,$$,"Avenida Oceânica, 1, Barra",Salvador,BR,BA,9296.4,2.0
Hotel Villa Bahia Restaurante,False,https://www.yelp.com/biz/hotel-villa-bahia-restaurante-salvador?adjust_creative=CBM7ZjWiczNoE0SNVf88LA&utm_campaign=yelp_api_v3&utm_medium=api_v3_business_search&utm_source=CBM7ZjWiczNoE0SNVf88LA,4,Restaurants,4.0,-12.9741697,-38.5091743,$$$,"Largo do Cruzeiro de Sao Francisco, no 16/18",Salvador,BR,BA,5595.91,3.0
Bar e restaurante Irmã Poesia,False,https://www.yelp.com/biz/bar-e-restaurante-irm%C3%A3-poesia-itaigara?adjust_creative=CBM7ZjWiczNoE0SNVf88LA&utm_campaign=yelp_api_v3&utm_medium=api_v3_business_search&utm_source=CBM7ZjWiczNoE0SNVf88LA,1,"Bars, Seafood",5.0,-12.2615604400635,-38.0437698364258,,Praça Dodô e Osmar,Salvador,BR,BA,1774.77,
Boteco do França,False,https://www.yelp.com/biz/boteco-do-fran%C3%A7a-salvador-2?adjust_creative=CBM7ZjWiczNoE0SNVf88LA&utm_campaign=yelp_api_v3&utm_medium=api_v3_business_search&utm_source=CBM7ZjWiczNoE0SNVf88LA,16,"Bars, Brazilian",4.0,-13.013261,-38.49002,$$,"R. Borges dos Reis, 24",Salvador,BR,BA,6240.41,2.0
Rancho do Cupim,False,https://www.yelp.com/biz/rancho-do-cupim-salvador?adjust_creative=CBM7ZjWiczNoE0SNVf88LA&utm_campaign=yelp_api_v3&utm_medium=api_v3_business_search&utm_source=CBM7ZjWiczNoE0SNVf88LA,5,"Steakhouses, Northeastern Brazilian, Rodizios",4.0,-12.9693928,-38.4111214,$$$,"R. Marquês de Queluz, 728 - Pituaçu, Salvador - BA, 41740-170",Salvador,BR,BA,5064.69,3.0
Casa Lisboa,False,https://www.yelp.com/biz/casa-lisboa-salvador?adjust_creative=CBM7ZjWiczNoE0SNVf88LA&utm_campaign=yelp_api_v3&utm_medium=api_v3_business_search&utm_source=CBM7ZjWiczNoE0SNVf88LA,4,"Desserts, Salad, Portuguese",5.0,-13.0046522,-38.5175744,$$$,"R. Manoel Dias de Morais, 35",Salvador,BR,BA,7685.8,3.0
Bier Bar,False,https://www.yelp.com/biz/bier-bar-salvador?adjust_creative=CBM7ZjWiczNoE0SNVf88LA&utm_campaign=yelp_api_v3&utm_medium=api_v3_business_search&utm_source=CBM7ZjWiczNoE0SNVf88LA,1,"Buffets, Beer Bar",5.0,-12.9657013998377,-38.5045078406051,,"R. dos Adôbes, 60",Salvador,BR,BA,5004.61,
Tudo Azul,False,https://www.yelp.com/biz/tudo-azul-salvador?adjust_creative=CBM7ZjWiczNoE0SNVf88LA&utm_campaign=yelp_api_v3&utm_medium=api_v3_business_search&utm_source=CBM7ZjWiczNoE0SNVf88LA,2,"Specialty Food, Seafood",4.0,-13.0042944,-38.5329094,$,Av. Sete de Setembro 3717,Salvador,BR,BA,8707.19,1.0
Rua 15,False,https://www.yelp.com/biz/rua-15-salvador-2?adjust_creative=CBM7ZjWiczNoE0SNVf88LA&utm_campaign=yelp_api_v3&utm_medium=api_v3_business_search&utm_source=CBM7ZjWiczNoE0SNVf88LA,9,"Gastropubs, Seafood, Northeastern Brazilian",4.0,-12.9525366,-38.3775558,$$,"Av. Iemanjá, 35",Salvador,BR,BA,3183.4,2.0
Restaurante e Loja Produtos Naturais Espaço Natural,False,https://www.yelp.com/biz/restaurante-e-loja-produtos-naturais-espa%C3%A7o-natural-salvador?adjust_creative=CBM7ZjWiczNoE0SNVf88LA&utm_campaign=yelp_api_v3&utm_medium=api_v3_business_search&utm_source=CBM7ZjWiczNoE0SNVf88LA,2,"Organic Stores, Vegetarian, Health Markets",4.0,-12.9814701,-38.4661713,,Av. Antônio Carlos Magalhães 848 lj 22,Salvador,BR,BA,3137.46,
Rango Vegan,False,https://www.yelp.com/biz/rango-vegan-salvador?adjust_creative=CBM7ZjWiczNoE0SNVf88LA&utm_campaign=yelp_api_v3&utm_medium=api_v3_business_search&utm_source=CBM7ZjWiczNoE0SNVf88LA,11,"Vegan, Vegetarian",4.5,-12.969292696689,-38.508025154002,$,"R. do Passo, 62",Salvador,BR,BA,5394.7,1.0
Espetinho Sabiá,False,https://www.yelp.com/biz/espetinho-sabi%C3%A1-salvador?adjust_creative=CBM7ZjWiczNoE0SNVf88LA&utm_campaign=yelp_api_v3&utm_medium=api_v3_business_search&utm_source=CBM7ZjWiczNoE0SNVf88LA,1,Tapas/Small Plates,5.0,-12.9316673,-38.4705963,,"R. Politeama de Baixo, 555",Salvador,BR,BA,6887.88,
O Lôro Praia do Flamengo,False,https://www.yelp.com/biz/o-l%C3%B4ro-praia-do-flamengo-salvador?adjust_creative=CBM7ZjWiczNoE0SNVf88LA&utm_campaign=yelp_api_v3&utm_medium=api_v3_business_search&utm_source=CBM7ZjWiczNoE0SNVf88LA,7,Tapas/Small Plates,4.0,-12.9226678,-38.3148505,$$$,"Rua Desembargador Manoel de Andrade Teixeira, 266",Salvador,BR,BA,16291.21,3.0
Tmk Club,False,https://www.yelp.com/biz/tmk-club-salvador?adjust_creative=CBM7ZjWiczNoE0SNVf88LA&utm_campaign=yelp_api_v3&utm_medium=api_v3_business_search&utm_source=CBM7ZjWiczNoE0SNVf88LA,12,Restaurants,4.5,-12.9784079,-38.46138,$$,Av. Tancredo Neves 148,Salvador,BR,BA,1810.38,2.0
Restaurante Marinata,False,https://www.yelp.com/biz/restaurante-marinata-salvador?adjust_creative=CBM7ZjWiczNoE0SNVf88LA&utm_campaign=yelp_api_v3&utm_medium=api_v3_business_search&utm_source=CBM7ZjWiczNoE0SNVf88LA,6,Restaurants,4.5,-13.0051537,-38.5302238,$$$,R. Cezar Zama 316,Salvador,BR,BA,8889.07,3.0
Churrascaria Fazendinha,False,https://www.yelp.com/biz/churrascaria-fazendinha-salvador?adjust_creative=CBM7ZjWiczNoE0SNVf88LA&utm_campaign=yelp_api_v3&utm_medium=api_v3_business_search&utm_source=CBM7ZjWiczNoE0SNVf88LA,1,Steakhouses,5.0,-12.9836683,-38.5136108,,"Rua Conselheiro Junqueira Aires, 1-125 , Barris",Salvador,BR,BA,6358.35,
Divino Fogão,False,https://www.yelp.com/biz/divino-fog%C3%A3o-salvador-3?adjust_creative=CBM7ZjWiczNoE0SNVf88LA&utm_campaign=yelp_api_v3&utm_medium=api_v3_business_search&utm_source=CBM7ZjWiczNoE0SNVf88LA,3,"Northeastern Brazilian, Central Brazilian",4.5,-12.9793929975383,-38.4542886266754,,"Avenida Tancredo Neves, 3133, L3",Salvador,BR,BA,1509.65,
Recanto do Açai,False,https://www.yelp.com/biz/recanto-do-a%C3%A7ai-cabula?adjust_creative=CBM7ZjWiczNoE0SNVf88LA&utm_campaign=yelp_api_v3&utm_medium=api_v3_business_search&utm_source=CBM7ZjWiczNoE0SNVf88LA,1,Diners,4.0,,,,"Alameda Uberada, 445, Box 4, Recanto do Cabula",Salvador,BR,BA,1387.54,
Handburger,False,https://www.yelp.com/biz/handburger-salvador?adjust_creative=CBM7ZjWiczNoE0SNVf88LA&utm_campaign=yelp_api_v3&utm_medium=api_v3_business_search&utm_source=CBM7ZjWiczNoE0SNVf88LA,15,Burgers,4.0,-13.0091113,-38.5294238,$$,"Av. Almirante Marques Leão, 293",Salvador,BR,BA,9040.04,2.0
A Porteira Restaurante,False,https://www.yelp.com/biz/a-porteira-restaurante-salvador?adjust_creative=CBM7ZjWiczNoE0SNVf88LA&utm_campaign=yelp_api_v3&utm_medium=api_v3_business_search&utm_source=CBM7ZjWiczNoE0SNVf88LA,13,"Desserts, Brazilian, Steakhouses",4.0,-12.8706503,-38.4754982,$$$,Av. Marechal Costa e Silva,Salvador,BR,BA,10805.09,3.0
Casarrara,False,https://www.yelp.com/biz/casarrara-salvador?adjust_creative=CBM7ZjWiczNoE0SNVf88LA&utm_campaign=yelp_api_v3&utm_medium=api_v3_business_search&utm_source=CBM7ZjWiczNoE0SNVf88LA,4,"Brazilian, Food Delivery Services, Pizza",4.5,-12.9758101,-38.4990196,$$,"R. Castro Neves, 199",Salvador,BR,BA,4570.35,2.0
Donana,False,https://www.yelp.com/biz/donana-salvador?adjust_creative=CBM7ZjWiczNoE0SNVf88LA&utm_campaign=yelp_api_v3&utm_medium=api_v3_business_search&utm_source=CBM7ZjWiczNoE0SNVf88LA,15,"Desserts, Seafood, Northeastern Brazilian",4.0,-12.9703817,-38.512382,$$,Conjunto dos Comerciários,Salvador,BR,BA,5873.91,2.0
Restaurante Terraço,False,https://www.yelp.com/biz/restaurante-terra%C3%A7o-salvador-2?adjust_creative=CBM7ZjWiczNoE0SNVf88LA&utm_campaign=yelp_api_v3&utm_medium=api_v3_business_search&utm_source=CBM7ZjWiczNoE0SNVf88LA,2,Northeastern Brazilian,4.0,-12.9816731027086,-38.4539979163381,,Rua Frederico Simões,Salvador,BR,BA,1761.96,
Restaurante Bacalhau de Martelo,False,https://www.yelp.com/biz/restaurante-bacalhau-de-martelo-salvador?adjust_creative=CBM7ZjWiczNoE0SNVf88LA&utm_campaign=yelp_api_v3&utm_medium=api_v3_business_search&utm_source=CBM7ZjWiczNoE0SNVf88LA,4,Portuguese,4.5,-13.0137796,-38.4870682,$$,"Rua Odilon Santos, nº 205 - Rio Vermelho.",Salvador,BR,BA,6054.44,2.0
Cien Fuegos,False,https://www.yelp.com/biz/cien-fuegos-salvador?adjust_creative=CBM7ZjWiczNoE0SNVf88LA&utm_campaign=yelp_api_v3&utm_medium=api_v3_business_search&utm_source=CBM7ZjWiczNoE0SNVf88LA,11,Mexican,4.0,-13.0098,-38.49502,$,"R. Alexandre Gusmão, 60",Salvador,BR,BA,6252.55,1.0
Villa Bahiana,False,https://www.yelp.com/biz/villa-bahiana-salvador?adjust_creative=CBM7ZjWiczNoE0SNVf88LA&utm_campaign=yelp_api_v3&utm_medium=api_v3_business_search&utm_source=CBM7ZjWiczNoE0SNVf88LA,5,"Pizza, Steakhouses, Imported Food",4.0,-12.9481497,-38.3615189,$$$,"Ladeira do Abaeté, 01",Salvador,BR,BA,10601.95,3.0
A Cubana Sorvetes,False,https://www.yelp.com/biz/a-cubana-sorvetes-salvador?adjust_creative=CBM7ZjWiczNoE0SNVf88LA&utm_campaign=yelp_api_v3&utm_medium=api_v3_business_search&utm_source=CBM7ZjWiczNoE0SNVf88LA,13,"Ice Cream & Frozen Yogurt, Desserts, Diners",4.0,-12.9747844,-38.5124025,$$,"Praça Thomé Souza, 1",Salvador,BR,BA,5928.92,2.0
Axego Restaurante e Bar,False,https://www.yelp.com/biz/axego-restaurante-e-bar-salvador?adjust_creative=CBM7ZjWiczNoE0SNVf88LA&utm_campaign=yelp_api_v3&utm_medium=api_v3_business_search&utm_source=CBM7ZjWiczNoE0SNVf88LA,7,Restaurants,4.0,-12.9960346,-38.496067,$$,R. João de Deus 1 - 1,Salvador,BR,BA,5553.8,2.0
Restaurante Acqua Café,False,https://www.yelp.com/biz/restaurante-acqua-caf%C3%A9-salvador?adjust_creative=CBM7ZjWiczNoE0SNVf88LA&utm_campaign=yelp_api_v3&utm_medium=api_v3_business_search&utm_source=CBM7ZjWiczNoE0SNVf88LA,2,"Cocktail Bars, Cafes, Italian",3.5,-12.9543907,-38.39235,$$$,Hotel Coocoon,Salvador,BR,BA,7165.07,3.0
Clube do Churrasco,False,https://www.yelp.com/biz/clube-do-churrasco-salvador?adjust_creative=CBM7ZjWiczNoE0SNVf88LA&utm_campaign=yelp_api_v3&utm_medium=api_v3_business_search&utm_source=CBM7ZjWiczNoE0SNVf88LA,5,"Steakhouses, Brazilian, Sandwiches",4.5,-12.9818091412856,-38.4639587381592,$$,"Av. Tancredo Neves, 148",Salvador,BR,BA,1818.84,2.0
Guapo,False,https://www.yelp.com/biz/guapo-salvador?adjust_creative=CBM7ZjWiczNoE0SNVf88LA&utm_campaign=yelp_api_v3&utm_medium=api_v3_business_search&utm_source=CBM7ZjWiczNoE0SNVf88LA,9,Mexican,3.0,-13.0058985,-38.5261421,$$,"R. Maceió, 86",Salvador,BR,BA,8572.23,2.0
