index,id,alias,name,image_url,is_closed,url,review_count,categories,rating,latitude,longitude,price,address1,city,zip-code,country,state,phone,display_phone,distance
0000,e7XbaW51Niv5vy-FW87JHQ,restaurante-diamond-rio-branco,Restaurante Diamond,https://s3-media1.fl.yelpcdn.com/bphoto/sDmxn5b27oLX0gQWM3eZYQ/o.jpg,False,https://www.yelp.com/biz/restaurante-diamond-rio-branco?adjust_creative=CBM7ZjWiczNoE0SNVf88LA&utm_campaign=yelp_api_v3&utm_medium=api_v3_business_search&utm_source=CBM7ZjWiczNoE0SNVf88LA,1,"International, Fast Food, Buffets",5.0,-9.97140282358207,-67.8116656467319,$$,Best Western,Rio Branco,69900-379,BR,AC,556832123100.0,+55 68 3212-3100,2693.241263788976
0001,WuJzqvbxI3NPxeiuDLGWmg,pizzaria-e-sorveteria-tutti-frutti-rio-branco,Pizzaria e Sorveteria Tutti Frutti,,False,https://www.yelp.com/biz/pizzaria-e-sorveteria-tutti-frutti-rio-branco?adjust_creative=CBM7ZjWiczNoE0SNVf88LA&utm_campaign=yelp_api_v3&utm_medium=api_v3_business_search&utm_source=CBM7ZjWiczNoE0SNVf88LA,1,Italian,4.0,-9.9710699,-67.8095195,$$,Av Ceará 1408,Rio Branco,69908-690,BR,AC,556832248257.0,+55 68 3224-8257,2902.9575921831565
0002,nOQcyjRc8-ayHNP41GQJrg,pinguim-rio-branco,Pinguim,https://s3-media4.fl.yelpcdn.com/bphoto/Jkt5UoOiqrHJSJhNpYZbFQ/o.jpg,False,https://www.yelp.com/biz/pinguim-rio-branco?adjust_creative=CBM7ZjWiczNoE0SNVf88LA&utm_campaign=yelp_api_v3&utm_medium=api_v3_business_search&utm_source=CBM7ZjWiczNoE0SNVf88LA,1,"Pizza, Ice Cream & Frozen Yogurt",4.0,-9.97029562238582,-67.8165201097727,,"Av. Ceará, 1998",Rio Branco,69900-303,BR,AC,556832442535.0,+55 68 3244-2535,2390.700819771372
0003,r0cJiWCyBsnoC2--CHssvg,cantinho-pizzaria-rio-branco,Cantinho Pizzaria,https://s3-media1.fl.yelpcdn.com/bphoto/bQYVpZSawBVb8FRJDe6QXw/o.jpg,False,https://www.yelp.com/biz/cantinho-pizzaria-rio-branco?adjust_creative=CBM7ZjWiczNoE0SNVf88LA&utm_campaign=yelp_api_v3&utm_medium=api_v3_business_search&utm_source=CBM7ZjWiczNoE0SNVf88LA,1,Pizza,4.0,-9.9635658,-67.8284988,,R. Isaura Parente 1642,Rio Branco,69918-270,BR,AC,556832272231.0,+55 68 3227-2231,2532.371739314697
0004,pYmh5dvY4iirxQ6t1vJWAA,malungo-café-maracanaú,Malungo café,https://s3-media3.fl.yelpcdn.com/bphoto/lJHeVx7Y8DSmSmemH6pmKA/o.jpg,False,https://www.yelp.com/biz/malungo-caf%C3%A9-maracana%C3%BA?adjust_creative=CBM7ZjWiczNoE0SNVf88LA&utm_campaign=yelp_api_v3&utm_medium=api_v3_business_search&utm_source=CBM7ZjWiczNoE0SNVf88LA,1,Restaurants,4.0,-3.8748198,-38.5833321,,"Rua Sete de Setembro, 454, Boa Vista (Espaço Rio Branco)",Maracanaú,,BR,CE,,,2694.542350503728
0005,qIE2GpOqVI8bsy7HBXDJiA,saladaria-rio-branco,Saladaria,https://s3-media4.fl.yelpcdn.com/bphoto/CfsoUFZycpVBK3omZ8mdwg/o.jpg,False,https://www.yelp.com/biz/saladaria-rio-branco?adjust_creative=CBM7ZjWiczNoE0SNVf88LA&utm_campaign=yelp_api_v3&utm_medium=api_v3_business_search&utm_source=CBM7ZjWiczNoE0SNVf88LA,1,"Juice Bars & Smoothies, Salad, Bistros",4.0,-9.96078866105721,-67.813759110868,$$,"Rua Futuro, 176",Rio Branco,69900-709,BR,AC,556899615513.0,+55 6899615513,3416.3070395452605
0006,UMFGqC0Mkg6hZW8kZHed8g,café-do-mercado-rio-branco,Café do Mercado,https://s3-media3.fl.yelpcdn.com/bphoto/dpYfz1ufb79mj7esECdPGw/o.jpg,False,https://www.yelp.com/biz/caf%C3%A9-do-mercado-rio-branco?adjust_creative=CBM7ZjWiczNoE0SNVf88LA&utm_campaign=yelp_api_v3&utm_medium=api_v3_business_search&utm_source=CBM7ZjWiczNoE0SNVf88LA,2,Diners,3.5,-9.97371006011963,-67.8077011108398,,Tv. Capitania 1 c 900,Rio Branco,69900-001,BR,AC,556832234567.0,+55 68 3223-4567,2694.542350503728
0007,Akl2cYX1MVnIrhnA82IJuw,don-juan-rio-branco,Don Juan,https://s3-media2.fl.yelpcdn.com/bphoto/QRCKx77jAwGnKj9x6ccPOA/o.jpg,False,https://www.yelp.com/biz/don-juan-rio-branco?adjust_creative=CBM7ZjWiczNoE0SNVf88LA&utm_campaign=yelp_api_v3&utm_medium=api_v3_business_search&utm_source=CBM7ZjWiczNoE0SNVf88LA,1,Burgers,4.0,-9.96547184003657,-67.8095899522304,,Praça José Augusto,Rio Branco,,BR,AC,5568992395001.0,+55 68 99239-5001,3301.9937923172206
0008,AHiyd2fL_AxyVwxFewgFYA,guia-do-sabor-pizzaria-rio-branco,Guia do Sabor Pizzaria,,False,https://www.yelp.com/biz/guia-do-sabor-pizzaria-rio-branco?adjust_creative=CBM7ZjWiczNoE0SNVf88LA&utm_campaign=yelp_api_v3&utm_medium=api_v3_business_search&utm_source=CBM7ZjWiczNoE0SNVf88LA,2,"Italian, Pizza",2.0,-9.9616035,-67.8351663,$$,"R. Isaura Parente, 2420",Rio Branco,69907-650,BR,AC,556832266744.0,+55 68 3226-6744,2797.3272667697274
0009,RwB_ixWTROvNOwz7BTBAnw,restaurante-e-churrascaria-cleovan-rio-branco,Restaurante e Churrascaria Cleovan,,False,https://www.yelp.com/biz/restaurante-e-churrascaria-cleovan-rio-branco?adjust_creative=CBM7ZjWiczNoE0SNVf88LA&utm_campaign=yelp_api_v3&utm_medium=api_v3_business_search&utm_source=CBM7ZjWiczNoE0SNVf88LA,1,Restaurants,3.0,-9.9663914,-67.8146753,,Rua Hugo Carneiro 234,Rio Branco,69908-250,BR,AC,556832244382.0,+55 68 3224-4382,2853.135164490395
0010,75_oz5GB_WbvrLq4pBhpHw,restaurante-a-princezinha-rio-branco,Restaurante A Princezinha,https://s3-media4.fl.yelpcdn.com/bphoto/OMNAg18nvdiXLi6F3r9e1w/o.jpg,False,https://www.yelp.com/biz/restaurante-a-princezinha-rio-branco?adjust_creative=CBM7ZjWiczNoE0SNVf88LA&utm_campaign=yelp_api_v3&utm_medium=api_v3_business_search&utm_source=CBM7ZjWiczNoE0SNVf88LA,2,"Pizza, Brazilian",2.0,-9.97548395458124,-67.810697819539,$$,"Travessa da Catedral, 14",Rio Branco,69900-094,BR,AC,556832227100.0,+55 68 3222-7100,2530.4817540227978
0011,ab6PHyX_MDCCe9SNSVPSyg,mister-grill-maceió,Mister Grill,https://s3-media2.fl.yelpcdn.com/bphoto/q_HVP30Q-NEVvt-q7dM7rA/o.jpg,False,https://www.yelp.com/biz/mister-grill-macei%C3%B3?adjust_creative=CBM7ZjWiczNoE0SNVf88LA&utm_campaign=yelp_api_v3&utm_medium=api_v3_business_search&utm_source=CBM7ZjWiczNoE0SNVf88LA,1,Steakhouses,4.0,-9.6167498,-35.7200317,$$,Av. Muniz Falcão 264,Maceió,57000-001,BR,AL,558233582096.0,+55 82 3358-2096,7987.764004417051
0012,WfDn3o_Z1s2Bu4v8y6-0og,lopana-maceió-2,Lopana,https://s3-media1.fl.yelpcdn.com/bphoto/IbuHDUIYeioPrPtGBErN-g/o.jpg,False,https://www.yelp.com/biz/lopana-macei%C3%B3-2?adjust_creative=CBM7ZjWiczNoE0SNVf88LA&utm_campaign=yelp_api_v3&utm_medium=api_v3_business_search&utm_source=CBM7ZjWiczNoE0SNVf88LA,4,"Bars, Brazilian",4.0,-9.663814,-35.70395,$$,"Av. Sílvio Carlos Vianna, 27",Maceió,57035-160,BR,AL,558232317484.0,+55 82 3231-7484,8004.496678749673
0013,5iQF47ZlSYgJ2fkaPGLinQ,akuaba-maceió-al,Akuaba,https://s3-media3.fl.yelpcdn.com/bphoto/Esj3aaGb45dSCxLNWQrf5g/o.jpg,False,https://www.yelp.com/biz/akuaba-macei%C3%B3-al?adjust_creative=CBM7ZjWiczNoE0SNVf88LA&utm_campaign=yelp_api_v3&utm_medium=api_v3_business_search&utm_source=CBM7ZjWiczNoE0SNVf88LA,2,"Seafood, Northeastern Brazilian",4.5,-9.6452114,-35.7016016,,"R. Ferroviário Manoel Gonçalves Filho, 6",Maceió - AL,57037-040,BR,AL,558233256199.0,+55 82 3325-6199,5940.116686992728
0014,1WE4aRs2wsBujDmoAkkDSg,wanchako-maceió-2,Wanchako,https://s3-media1.fl.yelpcdn.com/bphoto/mLgWhIwPkMuTGwUCieCbRw/o.jpg,False,https://www.yelp.com/biz/wanchako-macei%C3%B3-2?adjust_creative=CBM7ZjWiczNoE0SNVf88LA&utm_campaign=yelp_api_v3&utm_medium=api_v3_business_search&utm_source=CBM7ZjWiczNoE0SNVf88LA,5,Peruvian,5.0,-9.65504909400796,-35.6993597746228,$$$$,"R. São Francisco de Assis, 93",Maceió,57045-690,BR,AL,558233776024.0,+55 82 3377-6024,6941.978721871524
0015,pxNkmhXM5QFR32gO2s4CNg,akuaba-maceió,Akuaba,https://s3-media3.fl.yelpcdn.com/bphoto/iWNa2TxNpE_STFJ60ny_uQ/o.jpg,False,https://www.yelp.com/biz/akuaba-macei%C3%B3?adjust_creative=CBM7ZjWiczNoE0SNVf88LA&utm_campaign=yelp_api_v3&utm_medium=api_v3_business_search&utm_source=CBM7ZjWiczNoE0SNVf88LA,2,French,4.5,-9.6450901,-35.7103004,$$$,"Av. Álvaro Calheiros, Mangabeiras 09",Maceió,57037-020,BR,AL,558233256199.0,+55 82 3325-6199,6242.701518962785
0016,hzU2SDFohFeu5OOOjFmaNg,restaurante-janga-maceió,Restaurante Janga,https://s3-media3.fl.yelpcdn.com/bphoto/EV8buNw_xkZaGN2y-KmlTw/o.jpg,False,https://www.yelp.com/biz/restaurante-janga-macei%C3%B3?adjust_creative=CBM7ZjWiczNoE0SNVf88LA&utm_campaign=yelp_api_v3&utm_medium=api_v3_business_search&utm_source=CBM7ZjWiczNoE0SNVf88LA,3,Seafood,4.5,-9.661993,-35.697453,,"R. Gen. João Saleiro Pitão, 1296",Maceió,57035-190,BR,AL,558230283288.0,+55 82 3028-3288,7663.325363699779
0017,4vmUSVlJ3e9lTXTYWsqMkw,casa-de-mãinha-maceió,Casa de Mãinha,https://s3-media2.fl.yelpcdn.com/bphoto/u0qdWrNYWFJru52LmVDdhg/o.jpg,False,https://www.yelp.com/biz/casa-de-m%C3%A3inha-macei%C3%B3?adjust_creative=CBM7ZjWiczNoE0SNVf88LA&utm_campaign=yelp_api_v3&utm_medium=api_v3_business_search&utm_source=CBM7ZjWiczNoE0SNVf88LA,2,"Northeastern Brazilian, Buffets",5.0,-9.66356061451105,-35.7087226957083,,"R. Engenheiro Demócrito Sarmento Barroco, 80",Maceió,57035-003,BR,AL,5582988859170.0,+55 82 98885-9170,8119.556034974105
0018,hQRGk2WBwiykb1n-JSaeVg,imperador-dos-camarões-maceió,Imperador dos Camarões,https://s3-media1.fl.yelpcdn.com/bphoto/KRwE6rTGWWimhN30-q6z9Q/o.jpg,False,https://www.yelp.com/biz/imperador-dos-camar%C3%B5es-macei%C3%B3?adjust_creative=CBM7ZjWiczNoE0SNVf88LA&utm_campaign=yelp_api_v3&utm_medium=api_v3_business_search&utm_source=CBM7ZjWiczNoE0SNVf88LA,6,"Northeastern Brazilian, Seafood",4.5,-9.6685423,-35.7142078,$$$$,"Av. Dr. Antônio Gouveia, 607",Maceió,57030-170,BR,AL,558232314134.0,+55 82 3231-4134,8841.467394214982
0019,9dfMCuFjG_NEm_lcSIg04g,massarella-maceió,Massarella,https://s3-media3.fl.yelpcdn.com/bphoto/aXmoZLBX8MUaruXzGtRC0g/o.jpg,False,https://www.yelp.com/biz/massarella-macei%C3%B3?adjust_creative=CBM7ZjWiczNoE0SNVf88LA&utm_campaign=yelp_api_v3&utm_medium=api_v3_business_search&utm_source=CBM7ZjWiczNoE0SNVf88LA,4,"Brazilian, Pizza",4.5,-9.6505043,-35.70161,$$,"R. José Pontes Magalhães, 271",Maceió,57036-250,BR,AL,558233256000.0,+55 82 3325-6000,6473.197182399556
0020,d3zv5FerlyInEiGd6XCHnw,santo-orégano-maceió,Santo Orégano,https://s3-media1.fl.yelpcdn.com/bphoto/j5d1xmzmSECdILdPjXf0_g/o.jpg,False,https://www.yelp.com/biz/santo-or%C3%A9gano-macei%C3%B3?adjust_creative=CBM7ZjWiczNoE0SNVf88LA&utm_campaign=yelp_api_v3&utm_medium=api_v3_business_search&utm_source=CBM7ZjWiczNoE0SNVf88LA,2,Pizza,4.5,-9.58009122666007,-35.6584697011345,,"Rodovia AL, 101",Maceió,,BR,AL,558234321222.0,+55 82 3432-1222,3423.811250914164
0021,SUiwMBaHU2b7zEoboohdtg,armazém-guimarães-maceió-2,Armazém Guimarães,https://s3-media3.fl.yelpcdn.com/bphoto/Ibfu8d51-FxBVedra6aG1A/o.jpg,False,https://www.yelp.com/biz/armaz%C3%A9m-guimar%C3%A3es-macei%C3%B3-2?adjust_creative=CBM7ZjWiczNoE0SNVf88LA&utm_campaign=yelp_api_v3&utm_medium=api_v3_business_search&utm_source=CBM7ZjWiczNoE0SNVf88LA,7,"Italian, Pizza",4.5,-9.650901,-35.701217,$$,"Av. Dr. Antônio Gomes Barros, 188",Maceió,57036-000,BR,AL,558233254545.0,+55 82 3325-4545,6538.992123727696
0022,XfhR2IX4-CzSYLZ_57CprA,hibiscus-maceió,Hibiscus,https://s3-media3.fl.yelpcdn.com/bphoto/tE6qEE-p-x7ssJ4h6LdE0A/o.jpg,False,https://www.yelp.com/biz/hibiscus-macei%C3%B3?adjust_creative=CBM7ZjWiczNoE0SNVf88LA&utm_campaign=yelp_api_v3&utm_medium=api_v3_business_search&utm_source=CBM7ZjWiczNoE0SNVf88LA,2,Brazilian,5.0,-9.56468053565792,-35.6453086710175,$$$$,"AL 101 Norte, Residencial Angra de Ipioca",Maceió,,BR,AL,558232341438.0,+55 82 3234-1438,5553.993935055442
0023,fT2CvqGkVnlDM2jWWD2-hQ,divina-gula-maceió,Divina Gula,https://s3-media1.fl.yelpcdn.com/bphoto/O09QLG4L21iB6rm1gJC7NQ/o.jpg,False,https://www.yelp.com/biz/divina-gula-macei%C3%B3?adjust_creative=CBM7ZjWiczNoE0SNVf88LA&utm_campaign=yelp_api_v3&utm_medium=api_v3_business_search&utm_source=CBM7ZjWiczNoE0SNVf88LA,2,Restaurants,4.5,-9.64641696433671,-35.7050001493351,$$$,av Eng Paulo Brandão Nogueira 85,Maceió,57036-550,BR,AL,558233257055.0,+55 82 3325-7055,6181.86901297774
0024,mJfP8uiFv7Q37jg3n2ftpw,arrí-forneria-maceió,Arrí Forneria,https://s3-media4.fl.yelpcdn.com/bphoto/RfXrZhnyd40Enrtmh8GSdg/o.jpg,False,https://www.yelp.com/biz/arr%C3%AD-forneria-macei%C3%B3?adjust_creative=CBM7ZjWiczNoE0SNVf88LA&utm_campaign=yelp_api_v3&utm_medium=api_v3_business_search&utm_source=CBM7ZjWiczNoE0SNVf88LA,3,Tapas Bars,4.5,-9.6417614073698,-35.700622747013,,Rua Doutor Roland Simons 492-614,Maceió,57037-090,BR,AL,558233254305.0,+55 82 3325-4305,5541.803885281977
0025,k_RsMMYyCJ0xiDehMby2BQ,parmegianno-maceió,Parmegianno,https://s3-media4.fl.yelpcdn.com/bphoto/kWTj0RTpqCIfpcdNNC573w/o.jpg,False,https://www.yelp.com/biz/parmegianno-macei%C3%B3?adjust_creative=CBM7ZjWiczNoE0SNVf88LA&utm_campaign=yelp_api_v3&utm_medium=api_v3_business_search&utm_source=CBM7ZjWiczNoE0SNVf88LA,5,Restaurants,3.0,-9.6447382,-35.7003746,,R. José Luiz Calazans 44,Maceió,57035-850,BR,AL,558233259495.0,+55 82 3325-9495,5870.372855115556
0026,-xW6qBp2_rdrwEX1Sy_9MQ,massagueirinha-maceió-2,Massagueirinha,https://s3-media2.fl.yelpcdn.com/bphoto/6qPzjlfqPzGmNhFZ-b-Xrg/o.jpg,False,https://www.yelp.com/biz/massagueirinha-macei%C3%B3-2?adjust_creative=CBM7ZjWiczNoE0SNVf88LA&utm_campaign=yelp_api_v3&utm_medium=api_v3_business_search&utm_source=CBM7ZjWiczNoE0SNVf88LA,5,"Bars, Seafood",4.0,-9.65677586293796,-35.7087407624071,$$,"R. Deputado José Lages, 1105",Maceió,57035-330,BR,AL,558233271027.0,+55 82 3327-1027,7404.522300672327
0027,7oZRZRTobrskhvKZsOuprw,bodega-do-sertão-maceió,Bodega do Sertão,https://s3-media2.fl.yelpcdn.com/bphoto/XnWlErR8PTYVblyfWsj7_w/o.jpg,False,https://www.yelp.com/biz/bodega-do-sert%C3%A3o-macei%C3%B3?adjust_creative=CBM7ZjWiczNoE0SNVf88LA&utm_campaign=yelp_api_v3&utm_medium=api_v3_business_search&utm_source=CBM7ZjWiczNoE0SNVf88LA,4,Brazilian,4.5,-9.65321759842571,-35.6995966398721,,"Av Júlio Marques Luz, 62",Maceió,57035-700,BR,AL,558233274446.0,+55 82 3327-4446,6748.335356411427
0028,Op7qMHVg2NCspjmpvM3KQw,le-premier-maceió,Le Premier,https://s3-media2.fl.yelpcdn.com/bphoto/yidGAJQAnuYrlAnj93H1SQ/o.jpg,False,https://www.yelp.com/biz/le-premier-macei%C3%B3?adjust_creative=CBM7ZjWiczNoE0SNVf88LA&utm_campaign=yelp_api_v3&utm_medium=api_v3_business_search&utm_source=CBM7ZjWiczNoE0SNVf88LA,1,"Brazilian, International",5.0,-9.666354,-35.712538,,Best Western PREMIER,Maceió,57030-170,BR,AL,,,8547.41460688805
0029,LFMpjrj49Cs0VtCKHh1Ipw,kanoa-maceió,Kanoa,,False,https://www.yelp.com/biz/kanoa-macei%C3%B3?adjust_creative=CBM7ZjWiczNoE0SNVf88LA&utm_campaign=yelp_api_v3&utm_medium=api_v3_business_search&utm_source=CBM7ZjWiczNoE0SNVf88LA,1,"Brazilian, Beach Bars",5.0,-9.6638435384008,-35.705786,,"Av. Senador Robert Kennedy, 226",Maceió,57035-160,BR,AL,558291910753.0,+55 8291910753,8058.535090517338
0030,XTucVE2cvlgmaJjCN4uwAw,new-hakata-maceió,New Hakata,,False,https://www.yelp.com/biz/new-hakata-macei%C3%B3?adjust_creative=CBM7ZjWiczNoE0SNVf88LA&utm_campaign=yelp_api_v3&utm_medium=api_v3_business_search&utm_source=CBM7ZjWiczNoE0SNVf88LA,3,"Chinese, Japanese",4.0,-9.6485052,-35.705616,$$,"Av. Engenheiro Paulo Brandão Nogueira, 95",Maceió,57036-550,BR,AL,558233256160.0,+55 82 3325-6160,6336.076970682851
0031,0zu4MQ6hfQKBDmylJ2IpjA,anamá-restaurante-maceió,Anamá Restaurante,https://s3-media2.fl.yelpcdn.com/bphoto/ekYXY_iq2dLyTtsEI3Gq4w/o.jpg,False,https://www.yelp.com/biz/anam%C3%A1-restaurante-macei%C3%B3?adjust_creative=CBM7ZjWiczNoE0SNVf88LA&utm_campaign=yelp_api_v3&utm_medium=api_v3_business_search&utm_source=CBM7ZjWiczNoE0SNVf88LA,2,"Buffets, Delis",3.0,-9.664085427878,-35.6986348782352,,"Avenida Silvio Carlos Vianna, 2501.",Maceió,57035-160,BR,AL,558233054405.0,+55 82 3305-4405,7914.1336352531425
0032,TsCGbZ3FedAY3G2fYujMAQ,restaurante-picuí-maceió,Restaurante Picuí,https://s3-media2.fl.yelpcdn.com/bphoto/tgyEoH-uH9Cs41PzKgHSDQ/o.jpg,False,https://www.yelp.com/biz/restaurante-picu%C3%AD-macei%C3%B3?adjust_creative=CBM7ZjWiczNoE0SNVf88LA&utm_campaign=yelp_api_v3&utm_medium=api_v3_business_search&utm_source=CBM7ZjWiczNoE0SNVf88LA,1,"Brazilian, Steakhouses",4.0,-9.66980200352107,-35.7293633770158,,"Av. Paz, 1140",Maceió,57022-050,BR,AL,558232238080.0,+55 82 3223-8080,9662.799311082568
0033,bcqploTKaWOBzxVRWBKYQw,massarela-maceió,Massarela,https://s3-media2.fl.yelpcdn.com/bphoto/EGDEfCMuodhRVA4WLX7jqw/o.jpg,False,https://www.yelp.com/biz/massarela-macei%C3%B3?adjust_creative=CBM7ZjWiczNoE0SNVf88LA&utm_campaign=yelp_api_v3&utm_medium=api_v3_business_search&utm_source=CBM7ZjWiczNoE0SNVf88LA,3,Restaurants,4.0,-9.6510663,-35.7014958,$$$$,R. José Pontes de Magalhães 155,Maceió,57036-250,BR,AL,,,6564.45611066184
0034,-aSp7V4YDTmfbyOmO-SnMw,filé-do-zezé-maceió,Filé do Zezé,https://s3-media1.fl.yelpcdn.com/bphoto/qbXOKOeMavQ9POCgq17q9Q/o.jpg,False,https://www.yelp.com/biz/fil%C3%A9-do-zez%C3%A9-macei%C3%B3?adjust_creative=CBM7ZjWiczNoE0SNVf88LA&utm_campaign=yelp_api_v3&utm_medium=api_v3_business_search&utm_source=CBM7ZjWiczNoE0SNVf88LA,2,"Pizza, Northeastern Brazilian, Beer Bar",3.0,-9.649322,-35.702567,$$,"R. Industrial Climerio Sarmento, 15",Maceió,57036-590,BR,AL,558233134004.0,+55 82 3313-4004,6408.561250493321
0035,Yrpa5reTwyqsclf2gDDSDA,nirá-sushi-maceió,Nirá Sushi,https://s3-media1.fl.yelpcdn.com/bphoto/Hx0K7Jux2HLzQxXSR3lnuA/o.jpg,False,https://www.yelp.com/biz/nir%C3%A1-sushi-macei%C3%B3?adjust_creative=CBM7ZjWiczNoE0SNVf88LA&utm_campaign=yelp_api_v3&utm_medium=api_v3_business_search&utm_source=CBM7ZjWiczNoE0SNVf88LA,2,Restaurants,5.0,-9.6662515,-35.7350983,$$$,Rua Olavo Macedo Ribeiro 320 Qu13,Maceió,,BR,AL,558233258157.0,+55 82 3325-8157,9653.485241098282
0036,w8qZysH7SzYn2mHUPoeScA,bar-brasil-maceió,Bar Brasil,,False,https://www.yelp.com/biz/bar-brasil-macei%C3%B3?adjust_creative=CBM7ZjWiczNoE0SNVf88LA&utm_campaign=yelp_api_v3&utm_medium=api_v3_business_search&utm_source=CBM7ZjWiczNoE0SNVf88LA,1,"Restaurants, Bars",3.0,-9.593499,-35.6705622,,"Rua da Praia, 72",Maceió,57038-750,BR,AL,,,1732.3065856142975
0037,YqWxRsUhFGeM0WxZXFS95A,milk-maceió,Milk,https://s3-media4.fl.yelpcdn.com/bphoto/RkLvW8DfCA3M2LlCzZvSwg/o.jpg,False,https://www.yelp.com/biz/milk-macei%C3%B3?adjust_creative=CBM7ZjWiczNoE0SNVf88LA&utm_campaign=yelp_api_v3&utm_medium=api_v3_business_search&utm_source=CBM7ZjWiczNoE0SNVf88LA,1,"Brazilian, Pubs",2.0,-9.586044,-35.664426,,"R. São Pedro, 194",Maceió,57039-020,BR,AL,558299091125.0,+55 8299091125,2560.015771785996
0038,aXS_zVUyhsh_Q6QKBMBrPg,restaurante-dragão-maceió,Restaurante Dragão,,False,https://www.yelp.com/biz/restaurante-drag%C3%A3o-macei%C3%B3?adjust_creative=CBM7ZjWiczNoE0SNVf88LA&utm_campaign=yelp_api_v3&utm_medium=api_v3_business_search&utm_source=CBM7ZjWiczNoE0SNVf88LA,2,Restaurants,3.0,-9.6702194,-35.7158999,$$,Av. Dr Antonio Gouveia 21,Maceió,57030-175,BR,AL,558202312933.0,+55 8202312933,9078.29268597874
0039,s0dYAAay-9ERxTxA6T4EYw,ótimo-maceió,Ótimo,,False,https://www.yelp.com/biz/%C3%B3timo-macei%C3%B3?adjust_creative=CBM7ZjWiczNoE0SNVf88LA&utm_campaign=yelp_api_v3&utm_medium=api_v3_business_search&utm_source=CBM7ZjWiczNoE0SNVf88LA,1,Restaurants,5.0,-9.66651,-35.735,,,Maceió,,BR,AL,,,9653.485241098282
0040,NLKCoNuRqKwoqNziSRsuEw,grão-espresso-cafeteria-hiper-gbarbosa-maceió,Grão Espresso Cafeteria  Hiper Gbarbosa,https://s3-media3.fl.yelpcdn.com/bphoto/7-grDfE3KqFFWsVLgRxaYQ/o.jpg,False,https://www.yelp.com/biz/gr%C3%A3o-espresso-cafeteria-hiper-gbarbosa-macei%C3%B3?adjust_creative=CBM7ZjWiczNoE0SNVf88LA&utm_campaign=yelp_api_v3&utm_medium=api_v3_business_search&utm_source=CBM7ZjWiczNoE0SNVf88LA,1,"Coffee & Tea, Cafes, Fast Food",5.0,-9.6490748,-35.7072404,,Av. Emp. Carlos da Silva Nogueira  620,Maceió,57036-540,BR,AL,558288332111.0,+55 8288332111,6543.361733952233
0041,RZd-ClrErt-hN0w0qzJU6Q,restaurante-o-peixarão-maceió,Restaurante O Peixarão,https://s3-media3.fl.yelpcdn.com/bphoto/vAzDzHNBuSiwsmN5kY8JoQ/o.jpg,False,https://www.yelp.com/biz/restaurante-o-peixar%C3%A3o-macei%C3%B3?adjust_creative=CBM7ZjWiczNoE0SNVf88LA&utm_campaign=yelp_api_v3&utm_medium=api_v3_business_search&utm_source=CBM7ZjWiczNoE0SNVf88LA,3,Brazilian,4.5,-9.65334626056131,-35.6994898258206,,"Av.Júlio M.Luz, 50",Maceió,57035-700,BR,AL,558233257011.0,+55 82 3325-7011,6759.803620906553
0042,H7mI4LajDtcXod5Asi6Uzw,marios-burgers-maceió,Marios Burgers,,False,https://www.yelp.com/biz/marios-burgers-macei%C3%B3?adjust_creative=CBM7ZjWiczNoE0SNVf88LA&utm_campaign=yelp_api_v3&utm_medium=api_v3_business_search&utm_source=CBM7ZjWiczNoE0SNVf88LA,1,"Sandwiches, Burgers",4.0,-9.62672454115253,-35.7334437909979,,"Av. Rotary, 889",Maceió,57052-480,BR,AL,5582988504570.0,+55 82 98850-4570,6319.28438013309
0043,ZwsEjVsiPVQIDXscDGwFtg,sabatelli-pizza-e-arte-maceió,Sabatelli Pizza & Arte,,False,https://www.yelp.com/biz/sabatelli-pizza-e-arte-macei%C3%B3?adjust_creative=CBM7ZjWiczNoE0SNVf88LA&utm_campaign=yelp_api_v3&utm_medium=api_v3_business_search&utm_source=CBM7ZjWiczNoE0SNVf88LA,1,"Pizza, Italian",4.0,-9.591866,-35.73742,,"R. José Alfredo Marques, 663",Maceió,57048-230,BR,AL,558233163116.0,+55 82 3316-3116,5603.485580276309
0044,VC1rjduodeGCkJ5AnMGRPg,forneto-pizzaria-maceió,Forneto Pizzaria,https://s3-media4.fl.yelpcdn.com/bphoto/cTn7tY7taU4aWLML74twTA/o.jpg,False,https://www.yelp.com/biz/forneto-pizzaria-macei%C3%B3?adjust_creative=CBM7ZjWiczNoE0SNVf88LA&utm_campaign=yelp_api_v3&utm_medium=api_v3_business_search&utm_source=CBM7ZjWiczNoE0SNVf88LA,1,Pizza,5.0,-9.636988,-35.737356,,"R. Coronel Lima Rocha, 841",Maceió,57052-244,BR,AL,558230271230.0,+55 82 3027-1230,7359.739298516372
0045,IHzkU2AYYJwZjSYhi1kEwQ,sueca-comedoria-maceió,Sueca Comedoria,,False,https://www.yelp.com/biz/sueca-comedoria-macei%C3%B3?adjust_creative=CBM7ZjWiczNoE0SNVf88LA&utm_campaign=yelp_api_v3&utm_medium=api_v3_business_search&utm_source=CBM7ZjWiczNoE0SNVf88LA,1,Restaurants,4.0,-9.6658802,-35.7111588,,Av. Doutor Antônio Gouveia 1103,Maceió,57030-170,BR,AL,558233270359.0,+55 82 3327-0359,8668.037290643828
0046,8ICpYiLGqwaYSA4B72RsVA,palato-maceió-2,Palato,https://s3-media1.fl.yelpcdn.com/bphoto/ePdGLkdInEgoTZrv279l2g/o.jpg,False,https://www.yelp.com/biz/palato-macei%C3%B3-2?adjust_creative=CBM7ZjWiczNoE0SNVf88LA&utm_campaign=yelp_api_v3&utm_medium=api_v3_business_search&utm_source=CBM7ZjWiczNoE0SNVf88LA,3,"Delicatessen, Grocery, Japanese",3.5,-9.645732,-35.733748,$$,"Av. Fernandes Lima, 548",Maceió,57057-000,BR,AL,558221263000.0,+55 82 2126-3000,7755.624622514238
0047,LGiquAS2-h6VCpZ4scLt-A,don-burguer-hamburgueria-goumert-maceió,Don Burguer Hamburgueria Goumert,,False,https://www.yelp.com/biz/don-burguer-hamburgueria-goumert-macei%C3%B3?adjust_creative=CBM7ZjWiczNoE0SNVf88LA&utm_campaign=yelp_api_v3&utm_medium=api_v3_business_search&utm_source=CBM7ZjWiczNoE0SNVf88LA,1,Diners,4.0,-9.6638002,-35.7055817,$$,Av. Silvio Carlos Viana,Maceió,57035-160,BR,AL,558233255755.0,+55 82 3325-5755,7945.520522465604
0048,B1vjdrfTun-8qFEyiJ-rGA,palato-café-maceió,Palato Café,https://s3-media3.fl.yelpcdn.com/bphoto/w_PduLNHXjyiscHtyYmRVQ/o.jpg,False,https://www.yelp.com/biz/palato-caf%C3%A9-macei%C3%B3?adjust_creative=CBM7ZjWiczNoE0SNVf88LA&utm_campaign=yelp_api_v3&utm_medium=api_v3_business_search&utm_source=CBM7ZjWiczNoE0SNVf88LA,2,"Bistros, Cafes",2.5,-9.65657638960183,-35.7053164969836,$$$,"R. Deputado José Lages, 700",Maceió,57035-330,BR,AL,558221217575.0,+55 82 2121-7575,7267.458087172786
0049,N__IO3KTtsuZfFT76hW55g,mostardas-hamburgueria-maceió,Mostardas Hamburgueria,https://s3-media2.fl.yelpcdn.com/bphoto/tFEuIVFcLrvgwpczIbpong/o.jpg,False,https://www.yelp.com/biz/mostardas-hamburgueria-macei%C3%B3?adjust_creative=CBM7ZjWiczNoE0SNVf88LA&utm_campaign=yelp_api_v3&utm_medium=api_v3_business_search&utm_source=CBM7ZjWiczNoE0SNVf88LA,2,"Juice Bars & Smoothies, Burgers, Sandwiches",4.0,-9.6430397,-35.6993103,$,"Av. Álvaro Otacílio, 4187",Maceió,57036-850,BR,AL,558233137888.0,+55 82 3313-7888,5598.727637115737
0050,oC9CvGrTWIizZncbHZb5oQ,restaurante-ocara-maceió,Restaurante Ocara,https://s3-media3.fl.yelpcdn.com/bphoto/d2mDHTaOgd8EZrUM9cTwyA/o.jpg,False,https://www.yelp.com/biz/restaurante-ocara-macei%C3%B3?adjust_creative=CBM7ZjWiczNoE0SNVf88LA&utm_campaign=yelp_api_v3&utm_medium=api_v3_business_search&utm_source=CBM7ZjWiczNoE0SNVf88LA,1,Seafood,5.0,-9.528586,-35.607876,,"R. da Igreja, 158",Maceió,57039-800,BR,AL,558232341196.0,+55 82 3234-1196,11263.897453954158
0051,ololEZwoeOOZ2L7iv1fjFw,super-pizza-maceió,Super Pizza,,False,https://www.yelp.com/biz/super-pizza-macei%C3%B3?adjust_creative=CBM7ZjWiczNoE0SNVf88LA&utm_campaign=yelp_api_v3&utm_medium=api_v3_business_search&utm_source=CBM7ZjWiczNoE0SNVf88LA,1,Pizza,5.0,-9.66651,-35.735,,,Maceió,,BR,AL,,,9653.485241098282
0052,dxwNJyOXAYYPNK7eGf1JEA,bendita-massa-maceió,Bendita Massa,,False,https://www.yelp.com/biz/bendita-massa-macei%C3%B3?adjust_creative=CBM7ZjWiczNoE0SNVf88LA&utm_campaign=yelp_api_v3&utm_medium=api_v3_business_search&utm_source=CBM7ZjWiczNoE0SNVf88LA,1,Italian,5.0,-9.66651,-35.735,,,Maceió,,BR,AL,,,9653.485241098282
0053,pPp5YmSgA1QCYrQSrQFdKw,sushi-maki-maceió,Sushi Maki,https://s3-media2.fl.yelpcdn.com/bphoto/0ENOqYkBw5lKkKw8CrjkiA/o.jpg,False,https://www.yelp.com/biz/sushi-maki-macei%C3%B3?adjust_creative=CBM7ZjWiczNoE0SNVf88LA&utm_campaign=yelp_api_v3&utm_medium=api_v3_business_search&utm_source=CBM7ZjWiczNoE0SNVf88LA,1,"Sushi Bars, Japanese",4.0,-9.6641293,-35.69627,$$,"R. Desportista Humberto Guimarães, 541",Maceió,57035-030,BR,AL,558296991999.0,+55 8296991999,7832.934004830462
0054,YG_LcW3aVnMQKUo6bm0TmQ,take-maceió,Take,,False,https://www.yelp.com/biz/take-macei%C3%B3?adjust_creative=CBM7ZjWiczNoE0SNVf88LA&utm_campaign=yelp_api_v3&utm_medium=api_v3_business_search&utm_source=CBM7ZjWiczNoE0SNVf88LA,2,Japanese,5.0,-9.66651,-35.735,,,Maceió,,BR,AL,,,9653.485241098282
0055,tpgrMaAmb2Ls0zR0txoQpw,galeteria-do-chef-maceió,Galeteria do Chef,,False,https://www.yelp.com/biz/galeteria-do-chef-macei%C3%B3?adjust_creative=CBM7ZjWiczNoE0SNVf88LA&utm_campaign=yelp_api_v3&utm_medium=api_v3_business_search&utm_source=CBM7ZjWiczNoE0SNVf88LA,1,Restaurants,3.0,-9.6101265,-35.7254295,,Av. Presidente Getúlio Vargas 19,Maceió,57046-140,BR,AL,558233285075.0,+55 82 3328-5075,4407.643803943598
0056,8ZXBpZpIGnLd8mnIZPoP5w,carlito-pizzaria-e-restaurante-maceió,Carlito Pizzaria e Restaurante,https://s3-media4.fl.yelpcdn.com/bphoto/Fny90y4RFQocksITtPkzsw/o.jpg,False,https://www.yelp.com/biz/carlito-pizzaria-e-restaurante-macei%C3%B3?adjust_creative=CBM7ZjWiczNoE0SNVf88LA&utm_campaign=yelp_api_v3&utm_medium=api_v3_business_search&utm_source=CBM7ZjWiczNoE0SNVf88LA,3,Pizza,3.5,-9.66289737334599,-35.6957703323422,,"Av. Álvaro Otacílio, 2740",Maceió,57035-180,BR,AL,558232314020.0,+55 82 3231-4020,7735.8629103187695
0057,b7SJIT6dYObELsIDpH7tOw,bon-grillê-maceió,Bon Grillê,,False,https://www.yelp.com/biz/bon-grill%C3%AA-macei%C3%B3?adjust_creative=CBM7ZjWiczNoE0SNVf88LA&utm_campaign=yelp_api_v3&utm_medium=api_v3_business_search&utm_source=CBM7ZjWiczNoE0SNVf88LA,2,Restaurants,5.0,-9.66651,-35.735,$,,Maceió,,BR,AL,,,9653.485241098282
0058,4eZWWVZUkTLLzrONErIWYQ,chino-pop-maceió,Chino Pop,https://s3-media2.fl.yelpcdn.com/bphoto/nykCh7t_UvC_Qob_uo6pEg/o.jpg,False,https://www.yelp.com/biz/chino-pop-macei%C3%B3?adjust_creative=CBM7ZjWiczNoE0SNVf88LA&utm_campaign=yelp_api_v3&utm_medium=api_v3_business_search&utm_source=CBM7ZjWiczNoE0SNVf88LA,1,Chinese,3.0,-9.6502812523959,-35.7068239577895,,"Av Pretestato Ferreira Machado, 630",Maceió,57036-400,BR,AL,558234327007.0,+55 82 3432-7007,6653.660357298381
0059,B4j1EeWHltqkXj5yGqxEFw,café-ponta-verde-maceió,Café Ponta Verde,https://s3-media1.fl.yelpcdn.com/bphoto/D8EZbnIaFBaNOlxSzRTBeQ/o.jpg,False,https://www.yelp.com/biz/caf%C3%A9-ponta-verde-macei%C3%B3?adjust_creative=CBM7ZjWiczNoE0SNVf88LA&utm_campaign=yelp_api_v3&utm_medium=api_v3_business_search&utm_source=CBM7ZjWiczNoE0SNVf88LA,1,"Diners, Cafes",3.0,-9.66231587877817,-35.7014783844352,,"R. Engenheiro Mário de Gusmão, 768",Maceió,57035-000,BR,AL,,,7780.721519017423
0060,GhyXxRsJWXRgQkU5-GLPkg,casa-da-picanha-maceió,Casa da Picanha,,False,https://www.yelp.com/biz/casa-da-picanha-macei%C3%B3?adjust_creative=CBM7ZjWiczNoE0SNVf88LA&utm_campaign=yelp_api_v3&utm_medium=api_v3_business_search&utm_source=CBM7ZjWiczNoE0SNVf88LA,2,Restaurants,2.5,-9.6514254,-35.7099228,,Av. Doutor Antônio Gomes de Barros 702,Maceió,57036-000,BR,AL,558233555339.0,+55 82 3355-5339,6883.540113908094
0061,BOEVT9uqbKUvHp7ef3N2BQ,observatório-maceió,Observatório,,False,https://www.yelp.com/biz/observat%C3%B3rio-macei%C3%B3?adjust_creative=CBM7ZjWiczNoE0SNVf88LA&utm_campaign=yelp_api_v3&utm_medium=api_v3_business_search&utm_source=CBM7ZjWiczNoE0SNVf88LA,1,"Bars, Mexican",2.0,-9.6512616,-35.7080347,$$,"Av. Doutor Antônio Gomes de Barros, 930",Maceió,57036-000,BR,AL,558233160827.0,+55 82 3316-0827,6801.618948176786
0062,4O5uWjJtRRwRh-knNwo6dw,bobs-maceió,Bobs,,False,https://www.yelp.com/biz/bobs-macei%C3%B3?adjust_creative=CBM7ZjWiczNoE0SNVf88LA&utm_campaign=yelp_api_v3&utm_medium=api_v3_business_search&utm_source=CBM7ZjWiczNoE0SNVf88LA,1,Fast Food,5.0,-9.66651,-35.735,,,Maceió,,BR,AL,,,9653.485241098282
0063,oRekDRG6bfvfgsGEarbScg,don-pastello-maceió,Don Pastello,,False,https://www.yelp.com/biz/don-pastello-macei%C3%B3?adjust_creative=CBM7ZjWiczNoE0SNVf88LA&utm_campaign=yelp_api_v3&utm_medium=api_v3_business_search&utm_source=CBM7ZjWiczNoE0SNVf88LA,1,Fast Food,5.0,-9.66651,-35.735,,,Maceió,,BR,AL,,,9653.485241098282
0064,ku7QpUEmtrfEci9on39AGg,pizza-americana-maceió,Pizza Americana,,False,https://www.yelp.com/biz/pizza-americana-macei%C3%B3?adjust_creative=CBM7ZjWiczNoE0SNVf88LA&utm_campaign=yelp_api_v3&utm_medium=api_v3_business_search&utm_source=CBM7ZjWiczNoE0SNVf88LA,1,Pizza,1.0,-9.61080834661259,-35.7261412963271,,"Av. Presidente Getúlio Vargas, 455",Maceió,57046-840,BR,AL,558233170080.0,+55 82 3317-0080,4747.762519934476
0065,ecQ6me3oJ4qPJm9BjAeXJQ,restaurante-candelabro-maceió,Restaurante Candelabro,,False,https://www.yelp.com/biz/restaurante-candelabro-macei%C3%B3?adjust_creative=CBM7ZjWiczNoE0SNVf88LA&utm_campaign=yelp_api_v3&utm_medium=api_v3_business_search&utm_source=CBM7ZjWiczNoE0SNVf88LA,1,Restaurants,3.0,-9.6700917,-35.7388282,,"Av. Duque de Caixas, 21",Maceió,57022-050,BR,AL,558233264550.0,+55 82 3326-4550,10235.963423511152
0066,F1trlN-gn5DPS0ju-EG_0A,china-in-box-maceió,China in Box,,False,https://www.yelp.com/biz/china-in-box-macei%C3%B3?adjust_creative=CBM7ZjWiczNoE0SNVf88LA&utm_campaign=yelp_api_v3&utm_medium=api_v3_business_search&utm_source=CBM7ZjWiczNoE0SNVf88LA,2,Chinese,4.0,-9.66651,-35.735,$$,,Maceió,,BR,AL,,,9653.485241098282
0067,m5DWR5r2ddmLy4xswx3dwQ,mcdonalds-maceió,McDonalds,,False,https://www.yelp.com/biz/mcdonalds-macei%C3%B3?adjust_creative=CBM7ZjWiczNoE0SNVf88LA&utm_campaign=yelp_api_v3&utm_medium=api_v3_business_search&utm_source=CBM7ZjWiczNoE0SNVf88LA,1,Fast Food,5.0,-9.66651,-35.735,,,Maceió,,BR,AL,,,9653.485241098282
0068,slO8oc1fOis_7iXAa4n9Uw,dominos-maceió,Domino's,https://s3-media1.fl.yelpcdn.com/bphoto/5S7HnIxCnxfxW-xBx2FULg/o.jpg,False,https://www.yelp.com/biz/dominos-macei%C3%B3?adjust_creative=CBM7ZjWiczNoE0SNVf88LA&utm_campaign=yelp_api_v3&utm_medium=api_v3_business_search&utm_source=CBM7ZjWiczNoE0SNVf88LA,1,Pizza,1.0,-9.651458,-35.705658,,"Av. Doutor Antônio Gomes de Barros, 505",Maceió,57036-000,BR,AL,558233178797.0,+55 82 3317-8797,6735.74081098956
0069,Ozl9U9mDTq6qObKcVoN_4A,sarahs-esfihas-maceió,Sarah's Esfihas,,False,https://www.yelp.com/biz/sarahs-esfihas-macei%C3%B3?adjust_creative=CBM7ZjWiczNoE0SNVf88LA&utm_campaign=yelp_api_v3&utm_medium=api_v3_business_search&utm_source=CBM7ZjWiczNoE0SNVf88LA,1,Fast Food,5.0,-9.66651,-35.735,$,,Maceió,,BR,AL,,,9653.485241098282
0070,yK2k_44BP--HM0jTKvWEGQ,barricas-maceió,Barrica's,,False,https://www.yelp.com/biz/barricas-macei%C3%B3?adjust_creative=CBM7ZjWiczNoE0SNVf88LA&utm_campaign=yelp_api_v3&utm_medium=api_v3_business_search&utm_source=CBM7ZjWiczNoE0SNVf88LA,1,"Bars, Brazilian",3.0,-9.65846286457411,-35.6982102473396,$$,"Av. Álvaro Otacílio, 39",Maceió,57035-180,BR,AL,558233270909.0,+55 82 3327-0909,7290.378973256694
0071,pMrHMPMvLIphk8X1NjL7eg,max-pizzaria-maceió,Max Pizzaria,,False,https://www.yelp.com/biz/max-pizzaria-macei%C3%B3?adjust_creative=CBM7ZjWiczNoE0SNVf88LA&utm_campaign=yelp_api_v3&utm_medium=api_v3_business_search&utm_source=CBM7ZjWiczNoE0SNVf88LA,1,Pizza,1.0,-9.6295881,-35.737793,,Av. Fernandes Lima 2364 A,Maceió,57052-400,BR,AL,558233383059.0,+55 82 3338-3059,6857.958128433168
0072,JI27e2Z2JFS8C8TllHFA8w,jc-lanches-maceió,JC Lanches,,False,https://www.yelp.com/biz/jc-lanches-macei%C3%B3?adjust_creative=CBM7ZjWiczNoE0SNVf88LA&utm_campaign=yelp_api_v3&utm_medium=api_v3_business_search&utm_source=CBM7ZjWiczNoE0SNVf88LA,1,"Food Stands, Sandwiches",3.0,-9.66110523002839,-35.7012556105896,,R. Gen. João Saleiro Pitão,Maceió,57035-210,BR,AL,,,7643.993413182454
0073,mZ2T-K9J1dkuc8MEQXf5Pw,manjericão-restaurante-cafeteria-maceió,Manjericão Restaurante-Cafeteria,,False,https://www.yelp.com/biz/manjeric%C3%A3o-restaurante-cafeteria-macei%C3%B3?adjust_creative=CBM7ZjWiczNoE0SNVf88LA&utm_campaign=yelp_api_v3&utm_medium=api_v3_business_search&utm_source=CBM7ZjWiczNoE0SNVf88LA,1,Restaurants,3.0,-9.6566311,-35.7054032,,Rua Dep José Lages 545,Maceió,57035-330,BR,AL,558232312930.0,+55 82 3231-2930,7276.009848010597
0074,E9ZUOqdFmZHqmXVl6SDaJQ,creperia-flor-das-águas-maceió,Creperia flor das águas,,False,https://www.yelp.com/biz/creperia-flor-das-%C3%A1guas-macei%C3%B3?adjust_creative=CBM7ZjWiczNoE0SNVf88LA&utm_campaign=yelp_api_v3&utm_medium=api_v3_business_search&utm_source=CBM7ZjWiczNoE0SNVf88LA,1,Creperies,5.0,-9.66651,-35.735,,,Maceió,,BR,AL,,,9653.485241098282
0075,0SvHsBZMNRlLASwRc5oXTw,boteco-do-mar-maceió,Boteco do Mar,https://s3-media3.fl.yelpcdn.com/bphoto/sC9yiGnDJlGi4eQ8nSUwyg/o.jpg,False,https://www.yelp.com/biz/boteco-do-mar-macei%C3%B3?adjust_creative=CBM7ZjWiczNoE0SNVf88LA&utm_campaign=yelp_api_v3&utm_medium=api_v3_business_search&utm_source=CBM7ZjWiczNoE0SNVf88LA,1,"Seafood, Northeastern Brazilian",2.0,-9.65809279921137,-35.7050242647529,,"R. Manoel Ribeiro da Rocha, 78",Maceió,57035-700,BR,AL,558230271980.0,+55 82 3027-1980,7420.285588619189
0076,TxDH4Qiv-_au8yHhnok6zQ,pizzaria-papito-maceió,Pizzaria Papito,,False,https://www.yelp.com/biz/pizzaria-papito-macei%C3%B3?adjust_creative=CBM7ZjWiczNoE0SNVf88LA&utm_campaign=yelp_api_v3&utm_medium=api_v3_business_search&utm_source=CBM7ZjWiczNoE0SNVf88LA,1,Pizza,1.0,-9.6213102,-35.7328911,,R. Comendador Álvaro Peixoto 727,Maceió,57052-740,BR,AL,558232414849.0,+55 82 3241-4849,6008.10710832879
0077,mTqM2Q2SraXJkWbWZhocdw,divinas-pizza-maceió,Divina's Pizza,,False,https://www.yelp.com/biz/divinas-pizza-macei%C3%B3?adjust_creative=CBM7ZjWiczNoE0SNVf88LA&utm_campaign=yelp_api_v3&utm_medium=api_v3_business_search&utm_source=CBM7ZjWiczNoE0SNVf88LA,1,"Pizza, Brazilian, Food Delivery Services",3.0,-9.6654234,-35.7194252,$,"R. Doutor Zeferino Rodrigues, 808",Maceió,57030-644,BR,AL,558233276682.0,+55 82 3327-6682,9653.485241098282
0078,hifSacC5G_EnmXnZ5RPwVA,sushie-maceió,Sushie,,False,https://www.yelp.com/biz/sushie-macei%C3%B3?adjust_creative=CBM7ZjWiczNoE0SNVf88LA&utm_campaign=yelp_api_v3&utm_medium=api_v3_business_search&utm_source=CBM7ZjWiczNoE0SNVf88LA,1,Japanese,3.0,-9.6512565,-35.7061393,$$,"Av Dr. Antônio Gomes de Barros, 1144",Maceió,57036-000,BR,AL,558233254341.0,+55 82 3325-4341,6731.28903694186
0079,75Znlq2dqWI2VSiUJ-gs8Q,nicole-maceió,Nicole,,False,https://www.yelp.com/biz/nicole-macei%C3%B3?adjust_creative=CBM7ZjWiczNoE0SNVf88LA&utm_campaign=yelp_api_v3&utm_medium=api_v3_business_search&utm_source=CBM7ZjWiczNoE0SNVf88LA,1,Pizza,3.0,-9.6452646,-35.7080307,$,Av. Almirante Álvaro Calheiros 879 B,Maceió,57035-558,BR,AL,558232354646.0,+55 82 3235-4646,5963.316342068986
0080,X8gy-FfBji6hxTfLByDQxg,pizza-bar-o-piano-maceió,Pizza Bar O Piano,,False,https://www.yelp.com/biz/pizza-bar-o-piano-macei%C3%B3?adjust_creative=CBM7ZjWiczNoE0SNVf88LA&utm_campaign=yelp_api_v3&utm_medium=api_v3_business_search&utm_source=CBM7ZjWiczNoE0SNVf88LA,1,Pizza,3.0,-9.64738,-35.70357,$,"R. Escritor Antônio S de Mendonça Júnior, 0",Maceió,57036-420,BR,AL,558233551433.0,+55 82 3355-1433,6326.886490278118
0081,iOrvnp96_31FoYg7xbwLwA,estaleiro-restaurante-macapá,Estaleiro Restaurante,https://s3-media1.fl.yelpcdn.com/bphoto/ujDI_3TRAdN-MZM2cURjIg/o.jpg,False,https://www.yelp.com/biz/estaleiro-restaurante-macap%C3%A1?adjust_creative=CBM7ZjWiczNoE0SNVf88LA&utm_campaign=yelp_api_v3&utm_medium=api_v3_business_search&utm_source=CBM7ZjWiczNoE0SNVf88LA,1,"Brazilian, Seafood",5.0,0.0242747141244913,-51.056740703924,,"Av. Primeiro de Maio, 52",Macapá,68901-092,BR,AP,559632228375.0,+55 96 3222-8375,9717.26037086369
0082,xuisxyf3vw-qYDMQuASR-w,sweet-coffee-macapá,Sweet Coffee,https://s3-media2.fl.yelpcdn.com/bphoto/irQEB8XAGxgXL7U7h1CxyQ/o.jpg,False,https://www.yelp.com/biz/sweet-coffee-macap%C3%A1?adjust_creative=CBM7ZjWiczNoE0SNVf88LA&utm_campaign=yelp_api_v3&utm_medium=api_v3_business_search&utm_source=CBM7ZjWiczNoE0SNVf88LA,1,Cafes,5.0,0.040964,-51.059707,,R. Jovino Dinoá,Macapá,68908-121,BR,AP,5596991395917.0,+55 96 99139-5917,7941.825957678557
0083,jRAdav6luUTF-a6mwhvNpg,pizzaria-e-restaurante-zero-grau-macapá,Pizzaria e Restaurante Zero Grau,https://s3-media3.fl.yelpcdn.com/bphoto/gQIzPah-BhGKcV7ChzghXw/o.jpg,False,https://www.yelp.com/biz/pizzaria-e-restaurante-zero-grau-macap%C3%A1?adjust_creative=CBM7ZjWiczNoE0SNVf88LA&utm_campaign=yelp_api_v3&utm_medium=api_v3_business_search&utm_source=CBM7ZjWiczNoE0SNVf88LA,1,Italian,2.0,0.0343538,-51.0621128,,Rua Leopoldo Machado 2405,Macapá,68900-067,BR,AP,559632237844.0,+55 96 3223-7844,8447.287850647217
0084,jIjfE6ubvhHJ8eckiDiXsg,barrilde-chopp-macapá-2,Barrilde Chopp,https://s3-media3.fl.yelpcdn.com/bphoto/6Hgv109jqemfnGkgo-3v5Q/o.jpg,False,https://www.yelp.com/biz/barrilde-chopp-macap%C3%A1-2?adjust_creative=CBM7ZjWiczNoE0SNVf88LA&utm_campaign=yelp_api_v3&utm_medium=api_v3_business_search&utm_source=CBM7ZjWiczNoE0SNVf88LA,0,"Bars, American (Traditional)",0.0,0.04769,-51.0571213,,R. Odilado Silva,Macapá,,BR,AP,,,8498.582693129638
0085,BTZWTtLiuYTJaMUCHwTSeg,cantinho-baiano-restaurante-macapá,Cantinho Baiano Restaurante,,False,https://www.yelp.com/biz/cantinho-baiano-restaurante-macap%C3%A1?adjust_creative=CBM7ZjWiczNoE0SNVf88LA&utm_campaign=yelp_api_v3&utm_medium=api_v3_business_search&utm_source=CBM7ZjWiczNoE0SNVf88LA,0,Restaurants,0.0,0.0506107,-51.0419974,$$,"Rua Beira Rio, 328",Macapá,68901-470,BR,AP,559632234153.0,+55 96 3223-4153,8375.143666398242
0086,gjh3IhphdooHZCd88CJVoQ,cervejaria-e-churrascaria-café-do-gol-macapá,Cervejaria & Churrascaria Café do Gol,,False,https://www.yelp.com/biz/cervejaria-e-churrascaria-caf%C3%A9-do-gol-macap%C3%A1?adjust_creative=CBM7ZjWiczNoE0SNVf88LA&utm_campaign=yelp_api_v3&utm_medium=api_v3_business_search&utm_source=CBM7ZjWiczNoE0SNVf88LA,0,Restaurants,0.0,0.08592,-51.0638695,,R. Vereador Júlio Maria Pinto Pereira 1299,Macapá,68909-000,BR,AP,559632234258.0,+55 96 3223-4258,4124.992087510211
0087,dMjvWgAZHReYCSePbwa0Ug,philippe-jean-paul-marceau-delahaye-macapá,Philippe Jean Paul Marceau Delahaye,,False,https://www.yelp.com/biz/philippe-jean-paul-marceau-delahaye-macap%C3%A1?adjust_creative=CBM7ZjWiczNoE0SNVf88LA&utm_campaign=yelp_api_v3&utm_medium=api_v3_business_search&utm_source=CBM7ZjWiczNoE0SNVf88LA,0,Restaurants,0.0,0.022283,-51.0610924,,Av. 13 de Setembro 387,Macapá,68900-001,BR,AP,559632234211.0,+55 96 3223-4211,9695.643148729485
0088,dsvzqbv6wZphPFtYfneaIA,delícia-saudável-macapá,Delícia Saudável,,False,https://www.yelp.com/biz/del%C3%ADcia-saud%C3%A1vel-macap%C3%A1?adjust_creative=CBM7ZjWiczNoE0SNVf88LA&utm_campaign=yelp_api_v3&utm_medium=api_v3_business_search&utm_source=CBM7ZjWiczNoE0SNVf88LA,0,Restaurants,0.0,0.0542521,-51.0551071,,Av. Piauí 644,Macapá,68908-250,BR,AP,559632220556.0,+55 96 3222-0556,7047.241671283463
0089,B5RxT2QPtXND44EeKJ7-0Q,restaurante-carne-de-sol-dos-amigos-macapá,Restaurante Carne de Sol dos Amigos,,False,https://www.yelp.com/biz/restaurante-carne-de-sol-dos-amigos-macap%C3%A1?adjust_creative=CBM7ZjWiczNoE0SNVf88LA&utm_campaign=yelp_api_v3&utm_medium=api_v3_business_search&utm_source=CBM7ZjWiczNoE0SNVf88LA,0,Restaurants,0.0,0.0546879,-51.0521469,,R. São Paulo 211 lj A,Macapá,68908-370,BR,AP,559632172382.0,+55 96 3217-2382,7250.858551560845
0090,tjMkSaWADwFC9nvm5h3XsA,dona-leila-restaurante-macapá,Dona Leila Restaurante,,False,https://www.yelp.com/biz/dona-leila-restaurante-macap%C3%A1?adjust_creative=CBM7ZjWiczNoE0SNVf88LA&utm_campaign=yelp_api_v3&utm_medium=api_v3_business_search&utm_source=CBM7ZjWiczNoE0SNVf88LA,0,Restaurants,0.0,0.034387,-51.0488014,,"Av. Júlio Maria Lombaerd, Pe 48",Macapá,68900-030,BR,AP,559632243274.0,+55 96 3224-3274,8652.552692549343
0091,0tk_ukZCwEJZ1m2pTOhQrA,chalé-restaurante-macapá,Chalé Restaurante,,False,https://www.yelp.com/biz/chal%C3%A9-restaurante-macap%C3%A1?adjust_creative=CBM7ZjWiczNoE0SNVf88LA&utm_campaign=yelp_api_v3&utm_medium=api_v3_business_search&utm_source=CBM7ZjWiczNoE0SNVf88LA,0,Restaurants,0.0,0.039276,-51.0696754,,Av. Presidente Getúlio Vargas 499,Macapá,68900-070,BR,AP,559632221970.0,+55 96 3222-1970,7594.072850428965
0092,Y6CQB8WD6fRZHSLHECCrJg,galetos-grill-macapá,Galetos Grill,,False,https://www.yelp.com/biz/galetos-grill-macap%C3%A1?adjust_creative=CBM7ZjWiczNoE0SNVf88LA&utm_campaign=yelp_api_v3&utm_medium=api_v3_business_search&utm_source=CBM7ZjWiczNoE0SNVf88LA,0,Restaurants,0.0,0.0425509,-51.0635338,,R. Hamilton Silva 1215,Macapá,68900-068,BR,AP,559632242155.0,+55 96 3224-2155,7563.068510833046
0093,WrxBjmCE_So7UFGvWfL22g,restaurante-carne-de-sol-macapá,Restaurante Carne de Sol,,False,https://www.yelp.com/biz/restaurante-carne-de-sol-macap%C3%A1?adjust_creative=CBM7ZjWiczNoE0SNVf88LA&utm_campaign=yelp_api_v3&utm_medium=api_v3_business_search&utm_source=CBM7ZjWiczNoE0SNVf88LA,0,Restaurants,0.0,0.022703,-51.0711555,,R. Hildemar Maia 3051,Macapá,68902-870,BR,AP,559632428302.0,+55 96 3242-8302,9247.485741381022
0094,gNYa7Vr51ldVBzYU4W2csw,restaurante-coma-bem-kilos-macapá,Restaurante Coma Bem Kilo's,,False,https://www.yelp.com/biz/restaurante-coma-bem-kilos-macap%C3%A1?adjust_creative=CBM7ZjWiczNoE0SNVf88LA&utm_campaign=yelp_api_v3&utm_medium=api_v3_business_search&utm_source=CBM7ZjWiczNoE0SNVf88LA,0,Restaurants,0.0,0.0328986,-51.0605927,,Av. Coaracy Nunes 194 C,Macapá,68900-010,BR,AP,559632239855.0,+55 96 3223-9855,8661.912119140341
0095,r_nIvyAvKFeDZZfC4h2R4Q,restaurante-minerin-uai-sô-macapá,Restaurante Minerin Uai Sô,,False,https://www.yelp.com/biz/restaurante-minerin-uai-s%C3%B4-macap%C3%A1?adjust_creative=CBM7ZjWiczNoE0SNVf88LA&utm_campaign=yelp_api_v3&utm_medium=api_v3_business_search&utm_source=CBM7ZjWiczNoE0SNVf88LA,1,Restaurants,2.0,0.011336,-51.0625494,,Pr Araxá 6,Macapá,68902-630,BR,AP,559632415550.0,+55 96 3241-5550,10761.89064849306
0096,K9QewPdjnjnNTdflQKdkZA,pizzaria-água-na-boca-macapá,Pizzaria Água Na Boca,,False,https://www.yelp.com/biz/pizzaria-%C3%A1gua-na-boca-macap%C3%A1?adjust_creative=CBM7ZjWiczNoE0SNVf88LA&utm_campaign=yelp_api_v3&utm_medium=api_v3_business_search&utm_source=CBM7ZjWiczNoE0SNVf88LA,0,Pizza,0.0,0.0387666,-51.0624886,,Av. Presidente Getúlio Vargas 1321,Macapá,68900-070,BR,AP,559632227772.0,+55 96 3222-7772,8008.395454781763
0097,WEYjogkPAtBdBNUp5Dv1Uw,restaurante-bambu-bar-macapá,Restaurante Bambu Bar,,False,https://www.yelp.com/biz/restaurante-bambu-bar-macap%C3%A1?adjust_creative=CBM7ZjWiczNoE0SNVf88LA&utm_campaign=yelp_api_v3&utm_medium=api_v3_business_search&utm_source=CBM7ZjWiczNoE0SNVf88LA,0,Restaurants,0.0,-0.0492322,-51.1151009,,R. Nova da Praia 91,Macapá,68911-123,BR,AP,559632273242.0,+55 96 3227-3242,7116.22125676641
0098,xGT9pYQw_JgQQbcabtUOAw,barrilde-chopp-macapá,Barrilde Chopp,,False,https://www.yelp.com/biz/barrilde-chopp-macap%C3%A1?adjust_creative=CBM7ZjWiczNoE0SNVf88LA&utm_campaign=yelp_api_v3&utm_medium=api_v3_business_search&utm_source=CBM7ZjWiczNoE0SNVf88LA,0,"American (Traditional), Bars",0.0,0.0388796,-51.071106,,"Av. Presidente Vargas, 352",Macapá,68901-262,BR,AP,,,8639.38820205652
0099,ul-hWMCDULjEAOVUCnjavw,aylas-bolos-decorados-macapá,Ayla's Bolos Decorados,,False,https://www.yelp.com/biz/aylas-bolos-decorados-macap%C3%A1?adjust_creative=CBM7ZjWiczNoE0SNVf88LA&utm_campaign=yelp_api_v3&utm_medium=api_v3_business_search&utm_source=CBM7ZjWiczNoE0SNVf88LA,0,Buffets,0.0,0.05078,-51.0608482,,R. Leopoldo Machado,Macapá,68908-120,BR,AP,559641410590.0,+55 96 4141-0590,6947.451829027884
0100,nKzyulVpA_AyTsT7FAQMaQ,r-c-rocha-e-cia-macapá,R C Rocha &cia,,False,https://www.yelp.com/biz/r-c-rocha-e-cia-macap%C3%A1?adjust_creative=CBM7ZjWiczNoE0SNVf88LA&utm_campaign=yelp_api_v3&utm_medium=api_v3_business_search&utm_source=CBM7ZjWiczNoE0SNVf88LA,0,Diners,0.0,0.0349089,-51.0622177,,R. Leopoldo Machado 2334 - 3,Macapá,68901-971,BR,AP,559632221243.0,+55 96 3222-1243,8385.392532492257
0101,1SPKtTvizXOjncbQU6LnTA,o-q-dos-santos-macapá,O Q dos Santos,,False,https://www.yelp.com/biz/o-q-dos-santos-macap%C3%A1?adjust_creative=CBM7ZjWiczNoE0SNVf88LA&utm_campaign=yelp_api_v3&utm_medium=api_v3_business_search&utm_source=CBM7ZjWiczNoE0SNVf88LA,0,Diners,0.0,0.0339599996805191,-51.0666007995605,,Av. Egito 2967,Macapá,68907-350,BR,AP,559632516727.0,+55 96 3251-6727,8218.601740980055
0102,31lx9xTp7GoTTO0xAh6drA,casa-do-pão-de-queijo-macapá-2,Casa do Pão de Queijo,,False,https://www.yelp.com/biz/casa-do-p%C3%A3o-de-queijo-macap%C3%A1-2?adjust_creative=CBM7ZjWiczNoE0SNVf88LA&utm_campaign=yelp_api_v3&utm_medium=api_v3_business_search&utm_source=CBM7ZjWiczNoE0SNVf88LA,0,Diners,0.0,0.0349089,-51.0622177,,R. Leopoldo Machado 2334,Macapá,68901-971,BR,AP,559632172352.0,+55 96 3217-2352,8385.392532492257
0103,dEUyCTkDK7Oy9X8WOXHcqw,bobs-macapá,Bobs,,False,https://www.yelp.com/biz/bobs-macap%C3%A1?adjust_creative=CBM7ZjWiczNoE0SNVf88LA&utm_campaign=yelp_api_v3&utm_medium=api_v3_business_search&utm_source=CBM7ZjWiczNoE0SNVf88LA,0,Diners,0.0,0.0349089,-51.0622177,,R. Leopoldo Machado 2334 s 302,Macapá,68901-971,BR,AP,559632172174.0,+55 96 3217-2174,8385.392532492257
0104,eb9npwbWpIj_Q7tW1AQ8hg,forte-lanche-macapá,Forte Lanche,,False,https://www.yelp.com/biz/forte-lanche-macap%C3%A1?adjust_creative=CBM7ZjWiczNoE0SNVf88LA&utm_campaign=yelp_api_v3&utm_medium=api_v3_business_search&utm_source=CBM7ZjWiczNoE0SNVf88LA,0,Diners,0.0,0.0499211,-51.0421181,,"R. Beira Rio, 248 box C",Macapá,68902-470,BR,AP,559632252823.0,+55 96 3225-2823,8218.601740980055
0105,FB9Ds5xSIcdXnaPUQNOXBg,casa-do-pão-de-queijo-macapá,Casa do Pão de Queijo,,False,https://www.yelp.com/biz/casa-do-p%C3%A3o-de-queijo-macap%C3%A1?adjust_creative=CBM7ZjWiczNoE0SNVf88LA&utm_campaign=yelp_api_v3&utm_medium=api_v3_business_search&utm_source=CBM7ZjWiczNoE0SNVf88LA,0,Diners,0.0,0.03671,-51.0704308,,R. Hildemar Maia,Macapá,68901-310,BR,AP,559632234399.0,+55 96 3223-4399,7817.628239851372
0106,pY_dsd9ntnl1z_d7bjDRYw,restaurante-e-peixaria-mateus-macapá,Restaurante e Peixaria Mateus,,False,https://www.yelp.com/biz/restaurante-e-peixaria-mateus-macap%C3%A1?adjust_creative=CBM7ZjWiczNoE0SNVf88LA&utm_campaign=yelp_api_v3&utm_medium=api_v3_business_search&utm_source=CBM7ZjWiczNoE0SNVf88LA,0,Restaurants,0.0,0.0378539,-51.0619812,,R. Leopoldo Machado 2020,Macapá,68900-067,BR,AP,559632237787.0,+55 96 3223-7787,8128.510843376092
0107,Rkf_vO0ZXBw6kr4MBMGxGg,bar-e-restaurante-gogo-de-ouro-macapá,Bar e Restaurante Gogo de Ouro,,False,https://www.yelp.com/biz/bar-e-restaurante-gogo-de-ouro-macap%C3%A1?adjust_creative=CBM7ZjWiczNoE0SNVf88LA&utm_campaign=yelp_api_v3&utm_medium=api_v3_business_search&utm_source=CBM7ZjWiczNoE0SNVf88LA,0,Restaurants,0.0,0.03074,-51.0789185,,Av. Pedro de Oliveira Gomes 2754,Macapá,68901-291,BR,AP,559632420052.0,+55 96 3242-0052,8149.364000363611
0108,u487XusV39xlB4OAueBVKw,café-torrado-cafeteria-macapá,Café Torrado Cafeteria,,False,https://www.yelp.com/biz/caf%C3%A9-torrado-cafeteria-macap%C3%A1?adjust_creative=CBM7ZjWiczNoE0SNVf88LA&utm_campaign=yelp_api_v3&utm_medium=api_v3_business_search&utm_source=CBM7ZjWiczNoE0SNVf88LA,0,,0.0,0.0496339,-51.0422211,,"R. Beira Rio, 208A",Macapá,68902-470,BR,AP,559632226884.0,+55 96 3222-6884,8422.297736653041
0109,cMrfHj91e6ASXCStwHDG8g,silva-e-silvaepp-macapá,Silva & Silvaepp,,False,https://www.yelp.com/biz/silva-e-silvaepp-macap%C3%A1?adjust_creative=CBM7ZjWiczNoE0SNVf88LA&utm_campaign=yelp_api_v3&utm_medium=api_v3_business_search&utm_source=CBM7ZjWiczNoE0SNVf88LA,0,Restaurants,0.0,-0.05497,-51.1117516,,R. Beira Rio 1418 A,Macapá,68900-001,BR,AP,559632227253.0,+55 96 3222-7253,8291.41911739195
0110,fykXOxueinzxKKNEn932AQ,comercial-nogueira-macapá-2,Comercial Nogueira,,False,https://www.yelp.com/biz/comercial-nogueira-macap%C3%A1-2?adjust_creative=CBM7ZjWiczNoE0SNVf88LA&utm_campaign=yelp_api_v3&utm_medium=api_v3_business_search&utm_source=CBM7ZjWiczNoE0SNVf88LA,0,Restaurants,0.0,0.0385601,-51.0547867,,R. General Rondon 1569 B,Macapá,68900-082,BR,AP,559632223236.0,+55 96 3222-3236,8469.329871975584
0111,C57SCpBVDchpVaVRwC-hJg,churrascaria-grill-do-pará-macapá,Churrascaria Grill do Pará,,False,https://www.yelp.com/biz/churrascaria-grill-do-par%C3%A1-macap%C3%A1?adjust_creative=CBM7ZjWiczNoE0SNVf88LA&utm_campaign=yelp_api_v3&utm_medium=api_v3_business_search&utm_source=CBM7ZjWiczNoE0SNVf88LA,0,Restaurants,0.0,0.0320291,-51.0624275,,R. Leopoldo Machado 2664,Macapá,68901-130,BR,AP,559632227799.0,+55 96 3222-7799,8662.110553649878
0112,7YKtIjAsB2O5bpihCMjT-Q,sarney-lanches-macapá,Sarney Lanches,,False,https://www.yelp.com/biz/sarney-lanches-macap%C3%A1?adjust_creative=CBM7ZjWiczNoE0SNVf88LA&utm_campaign=yelp_api_v3&utm_medium=api_v3_business_search&utm_source=CBM7ZjWiczNoE0SNVf88LA,0,Restaurants,0.0,0.0377713,-51.0548477,,R. General Rondon 1483,Macapá,68900-082,BR,AP,559632237557.0,+55 96 3223-7557,8535.048053474851
0113,D2NYm500qKkoi9pRS5HoXw,restaurante-palmistes-macapá,Restaurante Palmistes,,False,https://www.yelp.com/biz/restaurante-palmistes-macap%C3%A1?adjust_creative=CBM7ZjWiczNoE0SNVf88LA&utm_campaign=yelp_api_v3&utm_medium=api_v3_business_search&utm_source=CBM7ZjWiczNoE0SNVf88LA,0,Restaurants,0.0,0.0504093,-51.0419426,,"R. Beira Rio, 316",Macapá,68902-470,BR,AP,559632271400.0,+55 96 3227-1400,8379.78000161625
0114,RUkiQ6EZntDtcbLoW8FQXg,tchoy-restaurante-oriental-macapá,Tchoy Restaurante Oriental,,False,https://www.yelp.com/biz/tchoy-restaurante-oriental-macap%C3%A1?adjust_creative=CBM7ZjWiczNoE0SNVf88LA&utm_campaign=yelp_api_v3&utm_medium=api_v3_business_search&utm_source=CBM7ZjWiczNoE0SNVf88LA,0,Restaurants,0.0,0.031892,-51.0645142,,R. Hamilton Silva 2442,Macapá,68901-140,BR,AP,559632222124.0,+55 96 3222-2124,8588.18582476579
0115,2nFtuFCv3D0f5_kAFGFmEg,restaurante-bolinha-macapá,Restaurante Bolinha,,False,https://www.yelp.com/biz/restaurante-bolinha-macap%C3%A1?adjust_creative=CBM7ZjWiczNoE0SNVf88LA&utm_campaign=yelp_api_v3&utm_medium=api_v3_business_search&utm_source=CBM7ZjWiczNoE0SNVf88LA,0,Restaurants,0.0,0.0375968,-51.0529022,,R. Tiradentes 610,Macapá,68900-098,BR,AP,559632232035.0,+55 96 3223-2035,8674.0023204012
0116,bOAmI8UfR6tbKRPbDLZ93g,mister-grill-macapá,Mister Grill,,False,https://www.yelp.com/biz/mister-grill-macap%C3%A1?adjust_creative=CBM7ZjWiczNoE0SNVf88LA&utm_campaign=yelp_api_v3&utm_medium=api_v3_business_search&utm_source=CBM7ZjWiczNoE0SNVf88LA,0,Restaurants,0.0,0.0334835,-51.0561409,,Av. Mendonça Júnior 1286,Macapá,68900-020,BR,AP,559632225953.0,+55 96 3222-5953,8838.599405667019
0117,Z3dZ2IUlvdVXfuGHWTe1dg,choppicanha-choperia-e-churrascaria-macapá,Choppicanha Choperia e Churrascaria,,False,https://www.yelp.com/biz/choppicanha-choperia-e-churrascaria-macap%C3%A1?adjust_creative=CBM7ZjWiczNoE0SNVf88LA&utm_campaign=yelp_api_v3&utm_medium=api_v3_business_search&utm_source=CBM7ZjWiczNoE0SNVf88LA,0,Restaurants,0.0,0.0348645,-51.0596581,,"R. Júlio Maria Lombard, Pe 1295 A",Macapá,68900-001,BR,AP,559632237476.0,+55 96 3223-7476,8508.187537636271
0118,UKcrdbCorPFSCbWvqWlNOQ,café-aymoré-macapá,Café Aymoré,,False,https://www.yelp.com/biz/caf%C3%A9-aymor%C3%A9-macap%C3%A1?adjust_creative=CBM7ZjWiczNoE0SNVf88LA&utm_campaign=yelp_api_v3&utm_medium=api_v3_business_search&utm_source=CBM7ZjWiczNoE0SNVf88LA,0,Restaurants,0.0,0.0397944,-51.0567932,,Av. Iracema Carvão Nunes 92,Macapá,68900-099,BR,AP,559632232328.0,+55 96 3223-2328,8213.385027428298
0119,HCkM4crEhLc8H1fELiq77Q,s-a-kilos-e-assados-macapá,S A Kilos e Assados,,False,https://www.yelp.com/biz/s-a-kilos-e-assados-macap%C3%A1?adjust_creative=CBM7ZjWiczNoE0SNVf88LA&utm_campaign=yelp_api_v3&utm_medium=api_v3_business_search&utm_source=CBM7ZjWiczNoE0SNVf88LA,0,Restaurants,0.0,0.0360053,-51.064209,,R. Hamilton Silva 1948,Macapá,68900-068,BR,AP,559632231111.0,+55 96 3223-1111,8170.470776888889
0120,143FEDjxUsfTgjPfNX4bzQ,espaço-livre-restaurante-macapá,Espaço Livre Restaurante,,False,https://www.yelp.com/biz/espa%C3%A7o-livre-restaurante-macap%C3%A1?adjust_creative=CBM7ZjWiczNoE0SNVf88LA&utm_campaign=yelp_api_v3&utm_medium=api_v3_business_search&utm_source=CBM7ZjWiczNoE0SNVf88LA,0,Restaurants,0.0,0.0363595,-51.0556374,,Av. General Gurjão 18,Macapá,68900-050,BR,AP,559632431565.0,+55 96 3243-1565,8598.642458239503
0121,mZtQ4R__p4PmlSxakBp9SA,pousada-e-restaurante-vista-amazônica-macapá,Pousada e Restaurante Vista Amazônica,,False,https://www.yelp.com/biz/pousada-e-restaurante-vista-amaz%C3%B4nica-macap%C3%A1?adjust_creative=CBM7ZjWiczNoE0SNVf88LA&utm_campaign=yelp_api_v3&utm_medium=api_v3_business_search&utm_source=CBM7ZjWiczNoE0SNVf88LA,0,Restaurants,0.0,0.05269,-51.0413895,,R. Beira Rio 1298,Macapá,68900-001,BR,AP,559632226851.0,+55 96 3222-6851,8282.121007409718
0122,6DOBUA0EiRtjU5SM4tO8sA,panela-de-barro-macapá,Panela de Barro,,False,https://www.yelp.com/biz/panela-de-barro-macap%C3%A1?adjust_creative=CBM7ZjWiczNoE0SNVf88LA&utm_campaign=yelp_api_v3&utm_medium=api_v3_business_search&utm_source=CBM7ZjWiczNoE0SNVf88LA,0,Restaurants,0.0,0.0507109,-51.0418358,,R. Beira Rio 358,Macapá,68902-470,BR,AP,559632242121.0,+55 96 3224-2121,8363.614901378805
0123,eBhKnAME2hN2T9KiimNKNw,rods-bar-e-restaurante-macapá,Rod's Bar e Restaurante,,False,https://www.yelp.com/biz/rods-bar-e-restaurante-macap%C3%A1?adjust_creative=CBM7ZjWiczNoE0SNVf88LA&utm_campaign=yelp_api_v3&utm_medium=api_v3_business_search&utm_source=CBM7ZjWiczNoE0SNVf88LA,0,Restaurants,0.0,0.0493898,-51.0423088,,R. Beira Rio 174,Macapá,68900-001,BR,AP,559632415665.0,+55 96 3241-5665,8760.350513710275
0124,qftzZGJ-UO9VxB9fgybt_g,restaurante-só-assados-macapá,Restaurante Só Assados,,False,https://www.yelp.com/biz/restaurante-s%C3%B3-assados-macap%C3%A1?adjust_creative=CBM7ZjWiczNoE0SNVf88LA&utm_campaign=yelp_api_v3&utm_medium=api_v3_business_search&utm_source=CBM7ZjWiczNoE0SNVf88LA,0,Restaurants,0.0,0.0324368,-51.0760307,,Av. Henrique Gallucio 294,Macapá,68900-001,BR,AP,559632232381.0,+55 96 3223-2381,8036.4631386702595
0125,rqiRoKQs9sGJvyjhpARo3w,trapiche-restaurante-macapá,Trapiche Restaurante,,False,https://www.yelp.com/biz/trapiche-restaurante-macap%C3%A1?adjust_creative=CBM7ZjWiczNoE0SNVf88LA&utm_campaign=yelp_api_v3&utm_medium=api_v3_business_search&utm_source=CBM7ZjWiczNoE0SNVf88LA,0,Restaurants,0.0,0.05269,-51.0413895,,R. Beira Rio 1294,Macapá,68902-470,BR,AP,559632252665.0,+55 96 3225-2665,7958.943195391248
0126,VoTfTXw7ZJmP1uUTLjPu_Q,restaurante-dom-garcia-macapá,Restaurante Dom Garcia,,False,https://www.yelp.com/biz/restaurante-dom-garcia-macap%C3%A1?adjust_creative=CBM7ZjWiczNoE0SNVf88LA&utm_campaign=yelp_api_v3&utm_medium=api_v3_business_search&utm_source=CBM7ZjWiczNoE0SNVf88LA,0,Restaurants,0.0,0.03287,-51.1164017,,Rod. Duque de Caxias 240,Macapá,68906-720,BR,AP,559632611225.0,+55 96 3261-1225,8027.320579091643
0127,XV6JHzinXX4Agz3MZFgbWw,churrascaria-santa-rita-macapá,Churrascaria Santa Rita,,False,https://www.yelp.com/biz/churrascaria-santa-rita-macap%C3%A1?adjust_creative=CBM7ZjWiczNoE0SNVf88LA&utm_campaign=yelp_api_v3&utm_medium=api_v3_business_search&utm_source=CBM7ZjWiczNoE0SNVf88LA,0,Restaurants,0.0,0.0353832,-51.076252,,Av. Mendonça Furtado 2084,Macapá,68901-254,BR,AP,559632230670.0,+55 96 3223-0670,7737.639565199685
0128,KUBmFRUy2_vWS3V9d4dLmQ,sagrada-família-restaurante-macapá,Sagrada Família Restaurante,,False,https://www.yelp.com/biz/sagrada-fam%C3%ADlia-restaurante-macap%C3%A1?adjust_creative=CBM7ZjWiczNoE0SNVf88LA&utm_campaign=yelp_api_v3&utm_medium=api_v3_business_search&utm_source=CBM7ZjWiczNoE0SNVf88LA,0,Restaurants,0.0,0.0361872,-51.0741463,,"R. Júlio Maria Lombard, Pe 2934 B",Macapá,68900-001,BR,AP,559632420300.0,+55 96 3242-0300,7726.98996051737
0129,SuwSerwj_NlWeElTyqXMpA,cantina-italiana-macapá,Cantina Italiana,,False,https://www.yelp.com/biz/cantina-italiana-macap%C3%A1?adjust_creative=CBM7ZjWiczNoE0SNVf88LA&utm_campaign=yelp_api_v3&utm_medium=api_v3_business_search&utm_source=CBM7ZjWiczNoE0SNVf88LA,0,Restaurants,0.0,0.0365905,-51.0709724,,Av. Professora Cora de Carvalho 2459,Macapá,68901-335,BR,AP,559632251803.0,+55 96 3225-1803,7796.688260722894
0130,d6f0JgMOfugNy7zyyXgzAw,oceanic-restaurante-macapá,Oceanic Restaurante,,False,https://www.yelp.com/biz/oceanic-restaurante-macap%C3%A1?adjust_creative=CBM7ZjWiczNoE0SNVf88LA&utm_campaign=yelp_api_v3&utm_medium=api_v3_business_search&utm_source=CBM7ZjWiczNoE0SNVf88LA,0,Restaurants,0.0,0.05269,-51.0413895,,R. Beira Rio 1398,Macapá,68902-470,BR,AP,559632226986.0,+55 96 3222-6986,7958.943195391248
0131,mIDVyo3UtpVBfM1k4ptZsg,bar-e-restaurante-bom-clima-macapá,Bar e Restaurante Bom Clima,,False,https://www.yelp.com/biz/bar-e-restaurante-bom-clima-macap%C3%A1?adjust_creative=CBM7ZjWiczNoE0SNVf88LA&utm_campaign=yelp_api_v3&utm_medium=api_v3_business_search&utm_source=CBM7ZjWiczNoE0SNVf88LA,0,Restaurants,0.0,0.05269,-51.0413895,,R. Beira Rio 1308,Macapá,68905-780,BR,AP,559632227126.0,+55 96 3222-7126,7958.943195391248
0132,ORHJPQPr0EYl97eXDY3aqw,salgadinho-lanches-macapá,Salgadinho Lanches,,False,https://www.yelp.com/biz/salgadinho-lanches-macap%C3%A1?adjust_creative=CBM7ZjWiczNoE0SNVf88LA&utm_campaign=yelp_api_v3&utm_medium=api_v3_business_search&utm_source=CBM7ZjWiczNoE0SNVf88LA,0,Diners,0.0,0.0495208,-51.0602531,,Av. Ana Nery 524,Macapá,68900-001,BR,AP,559632237325.0,+55 96 3223-7325,7100.999115509164
0133,ymYINoeUuK7KsVnSyWXuaQ,churrascaria-e-pizzaria-do-goiano-macapá,Churrascaria e Pizzaria do Goiano,,False,https://www.yelp.com/biz/churrascaria-e-pizzaria-do-goiano-macap%C3%A1?adjust_creative=CBM7ZjWiczNoE0SNVf88LA&utm_campaign=yelp_api_v3&utm_medium=api_v3_business_search&utm_source=CBM7ZjWiczNoE0SNVf88LA,0,Steakhouses,0.0,0.0356055,-51.0530434,,R. Tiradentes 854,Macapá,68900-001,BR,AP,559632253192.0,+55 96 3225-3192,8858.539361180388
0134,uiPZwqRGPpl_i74uYPoaZA,moraes-e-santos-promoções-e-eventos-comerciais-macapá,Moraes e Santos Promoções e Eventos Comerciais,,False,https://www.yelp.com/biz/moraes-e-santos-promo%C3%A7%C3%B5es-e-eventos-comerciais-macap%C3%A1?adjust_creative=CBM7ZjWiczNoE0SNVf88LA&utm_campaign=yelp_api_v3&utm_medium=api_v3_business_search&utm_source=CBM7ZjWiczNoE0SNVf88LA,0,Restaurants,0.0,0.0344428,-51.0538559,,Av. Padre Júlio Maria Lombard 623,Macapá,68900-030,BR,AP,559632233841.0,+55 96 3223-3841,8892.454998174308
0135,A8SDLba2SNemfDf1a6oV1w,x-do-sul-lanches-macapá,X do Sul Lanches,,False,https://www.yelp.com/biz/x-do-sul-lanches-macap%C3%A1?adjust_creative=CBM7ZjWiczNoE0SNVf88LA&utm_campaign=yelp_api_v3&utm_medium=api_v3_business_search&utm_source=CBM7ZjWiczNoE0SNVf88LA,0,Diners,0.0,0.0249219,-51.0613899,,Av. 1º de Maio 2035,Macapá,68902-891,BR,AP,559632430075.0,+55 96 3243-0075,9306.930516661703
0136,IoqivS4QpAZdn8PPdg1BoA,estrela-de-davi-sorveteria-e-pizzaria-macapá,Estrela de Davi Sorveteria e Pizzaria,https://s3-media3.fl.yelpcdn.com/bphoto/VWEqHbmUWerYfII6Qf2X1w/o.jpg,False,https://www.yelp.com/biz/estrela-de-davi-sorveteria-e-pizzaria-macap%C3%A1?adjust_creative=CBM7ZjWiczNoE0SNVf88LA&utm_campaign=yelp_api_v3&utm_medium=api_v3_business_search&utm_source=CBM7ZjWiczNoE0SNVf88LA,0,Italian,0.0,0.034968,-51.0516382,,Rua S José 895,Macapá,68908-015,BR,AP,559632237744.0,+55 96 3223-7744,8991.075538827014
0137,HR6N5BmwW9teMP6OIvY9nA,restaurante-frigideira-macapá,Restaurante Frigideira,,False,https://www.yelp.com/biz/restaurante-frigideira-macap%C3%A1?adjust_creative=CBM7ZjWiczNoE0SNVf88LA&utm_campaign=yelp_api_v3&utm_medium=api_v3_business_search&utm_source=CBM7ZjWiczNoE0SNVf88LA,0,Restaurants,0.0,0.0334389,-51.0488472,,Av. Mendonça Júnior 12 B,Macapá,68900-020,BR,AP,559632227930.0,+55 96 3222-7930,9324.42009151652
0138,K8uvg_TseO_bwsiDMujSIA,bambino-restaurante-macapá,Bambino Restaurante,,False,https://www.yelp.com/biz/bambino-restaurante-macap%C3%A1?adjust_creative=CBM7ZjWiczNoE0SNVf88LA&utm_campaign=yelp_api_v3&utm_medium=api_v3_business_search&utm_source=CBM7ZjWiczNoE0SNVf88LA,0,Restaurants,0.0,0.0196245,-51.0728989,,Av. dos Tupiniquins 1320,Macapá,68902-866,BR,AP,559632429313.0,+55 96 3242-9313,9525.273094925702
0139,phuUGLEKlxpWSGlGjhVV5Q,khristal-recepções-macapá,Khristal Recepções,,False,https://www.yelp.com/biz/khristal-recep%C3%A7%C3%B5es-macap%C3%A1?adjust_creative=CBM7ZjWiczNoE0SNVf88LA&utm_campaign=yelp_api_v3&utm_medium=api_v3_business_search&utm_source=CBM7ZjWiczNoE0SNVf88LA,0,Buffets,0.0,0.0401462,-51.0693817,,Av. Duque de Caxias 529,Macapá,68900-071,BR,AP,559632231832.0,+55 96 3223-1832,7521.14777560672
0140,xhxPzaCHY1ut6ScUKFIeXw,prato-de-barro-eventos-e-recepções-macapá,Prato de Barro Eventos e Recepções,,False,https://www.yelp.com/biz/prato-de-barro-eventos-e-recep%C3%A7%C3%B5es-macap%C3%A1?adjust_creative=CBM7ZjWiczNoE0SNVf88LA&utm_campaign=yelp_api_v3&utm_medium=api_v3_business_search&utm_source=CBM7ZjWiczNoE0SNVf88LA,0,Buffets,0.0,0.0497796,-51.0539246,,R. General Rondon 2839,Macapá,68901-018,BR,AP,559632228182.0,+55 96 3222-8182,7535.169991362003
0141,0NelrvBA08wIzPX2NlC4Eg,são-josé-lanches-macapá,São José Lanches,,False,https://www.yelp.com/biz/s%C3%A3o-jos%C3%A9-lanches-macap%C3%A1?adjust_creative=CBM7ZjWiczNoE0SNVf88LA&utm_campaign=yelp_api_v3&utm_medium=api_v3_business_search&utm_source=CBM7ZjWiczNoE0SNVf88LA,0,Diners,0.0,0.03766,-51.0611916,,Av. Mário Cruz,Macapá,68900-740,BR,AP,559632235189.0,+55 96 3223-5189,8133.789499919791
0142,EUNseJTCON7i59VtzAU4xw,waldir-buffet-macapá,Waldir Buffet,,False,https://www.yelp.com/biz/waldir-buffet-macap%C3%A1?adjust_creative=CBM7ZjWiczNoE0SNVf88LA&utm_campaign=yelp_api_v3&utm_medium=api_v3_business_search&utm_source=CBM7ZjWiczNoE0SNVf88LA,0,Buffets,0.0,0.0455604,-51.0566635,,"Av. Mãe Luzia, 1228",Macapá,68900-001,BR,AP,559632231109.0,+55 96 3223-1109,7691.886622338306
0143,hvyoguF__rih3d1cxnhv2A,divina-arte-macapá,Divina Arte,,False,https://www.yelp.com/biz/divina-arte-macap%C3%A1?adjust_creative=CBM7ZjWiczNoE0SNVf88LA&utm_campaign=yelp_api_v3&utm_medium=api_v3_business_search&utm_source=CBM7ZjWiczNoE0SNVf88LA,0,Buffets,0.0,0.0380108,-51.0578537,,R. Odilardo Silva 1574,Macapá,68900-151,BR,AP,559632221877.0,+55 96 3222-1877,8328.494411235808
0144,kwIQ-JOlZKTczLoJYRzaFw,reginis-buffet-macapá,Regini's Buffet,,False,https://www.yelp.com/biz/reginis-buffet-macap%C3%A1?adjust_creative=CBM7ZjWiczNoE0SNVf88LA&utm_campaign=yelp_api_v3&utm_medium=api_v3_business_search&utm_source=CBM7ZjWiczNoE0SNVf88LA,0,Buffets,0.0,0.0424746,-51.0544624,,Av. Raimundo Álvares da Costa 2675,Macapá,68901-256,BR,AP,559632255626.0,+55 96 3225-5626,8147.2429933095555
0145,KRZ9UaUE1akHbiW6wZdNHA,bodega-dellivery-macapá,Bodega Dellivery,,False,https://www.yelp.com/biz/bodega-dellivery-macap%C3%A1?adjust_creative=CBM7ZjWiczNoE0SNVf88LA&utm_campaign=yelp_api_v3&utm_medium=api_v3_business_search&utm_source=CBM7ZjWiczNoE0SNVf88LA,0,Pizza,0.0,0.0525579,-51.0608521,,R. Leopoldo Machado 346,Macapá,68908-120,BR,AP,559632235450.0,+55 96 3223-5450,6812.839179525417
0146,O1599FshfY3dgFd-bCe7eQ,restaurante-chão-do-nordeste-macapá,Restaurante Chão do Nordeste,,False,https://www.yelp.com/biz/restaurante-ch%C3%A3o-do-nordeste-macap%C3%A1?adjust_creative=CBM7ZjWiczNoE0SNVf88LA&utm_campaign=yelp_api_v3&utm_medium=api_v3_business_search&utm_source=CBM7ZjWiczNoE0SNVf88LA,0,Restaurants,0.0,0.018634,-51.0569229,,R. André de Oliveira Costa 652,Macapá,68901-460,BR,AP,559632226777.0,+55 96 3222-6777,10285.065417150114
0147,bErm0s1hOGI3ApJ31nvPMw,aconchego-restaurante-peixaria-macapá,Aconchego Restaurante Peixaria,,False,https://www.yelp.com/biz/aconchego-restaurante-peixaria-macap%C3%A1?adjust_creative=CBM7ZjWiczNoE0SNVf88LA&utm_campaign=yelp_api_v3&utm_medium=api_v3_business_search&utm_source=CBM7ZjWiczNoE0SNVf88LA,0,Restaurants,0.0,0.0181426,-51.0569496,,R. André de Oliveira Costa 682,Macapá,68901-460,BR,AP,559632227130.0,+55 96 3222-7130,10310.95303424435
0148,pW8KOnxfl8cVXDTQw-XSnw,elizete-buffet-e-eventos-macapá,Elizete Buffet e Eventos,,False,https://www.yelp.com/biz/elizete-buffet-e-eventos-macap%C3%A1?adjust_creative=CBM7ZjWiczNoE0SNVf88LA&utm_campaign=yelp_api_v3&utm_medium=api_v3_business_search&utm_source=CBM7ZjWiczNoE0SNVf88LA,0,Buffets,0.0,0.0318434,-51.0569458,,Av. Álvaro Carvalho Barbosa 2816,Macapá,68909-621,BR,AP,559632515984.0,+55 96 3251-5984,8218.601740980055
0149,0mM3BRORVB-YJSs6bET2og,doce-vida-macapá,Doce Vida,,False,https://www.yelp.com/biz/doce-vida-macap%C3%A1?adjust_creative=CBM7ZjWiczNoE0SNVf88LA&utm_campaign=yelp_api_v3&utm_medium=api_v3_business_search&utm_source=CBM7ZjWiczNoE0SNVf88LA,0,Buffets,0.0,0.0338704,-51.0598335,,Av. Mendonça Furtado 213,Macapá,68900-060,BR,AP,559632242484.0,+55 96 3224-2484,8595.489104086208
0150,rvOr87wdXUF88cvMWr7zIg,bolo-da-maria-buffet-macapá,Bolo da Maria Buffet,,False,https://www.yelp.com/biz/bolo-da-maria-buffet-macap%C3%A1?adjust_creative=CBM7ZjWiczNoE0SNVf88LA&utm_campaign=yelp_api_v3&utm_medium=api_v3_business_search&utm_source=CBM7ZjWiczNoE0SNVf88LA,0,Buffets,0.0,0.0245343,-51.0859108,,R. Antônio Pinheiro Sampaio 83,Macapá,68900-001,BR,AP,559632422558.0,+55 96 3242-2558,8669.982848471474
0151,Uzo5lRomOxbJBpyHEjxkeA,doçuras-confeitaria-macapá,Doçuras Confeitaria,,False,https://www.yelp.com/biz/do%C3%A7uras-confeitaria-macap%C3%A1?adjust_creative=CBM7ZjWiczNoE0SNVf88LA&utm_campaign=yelp_api_v3&utm_medium=api_v3_business_search&utm_source=CBM7ZjWiczNoE0SNVf88LA,0,Buffets,0.0,0.0411181,-51.0597725,,Av. Fab 2245 A,Macapá,68900-073,BR,AP,559632170800.0,+55 96 3217-0800,7939.508607745411
0152,QTpJb5yX--NC2vKVBsrSxg,tenda-da-dedeka-macapá,Tenda da Dedeka,,False,https://www.yelp.com/biz/tenda-da-dedeka-macap%C3%A1?adjust_creative=CBM7ZjWiczNoE0SNVf88LA&utm_campaign=yelp_api_v3&utm_medium=api_v3_business_search&utm_source=CBM7ZjWiczNoE0SNVf88LA,0,Diners,0.0,0.05269,-51.0413895,,R. Beira Rio,Macapá,68902-470,BR,AP,559632242060.0,+55 96 3224-2060,8317.113944210889
0153,upz9fwjFNEpEEtVloAK7kQ,lanche-dias-macapá,Lanche Dias,,False,https://www.yelp.com/biz/lanche-dias-macap%C3%A1?adjust_creative=CBM7ZjWiczNoE0SNVf88LA&utm_campaign=yelp_api_v3&utm_medium=api_v3_business_search&utm_source=CBM7ZjWiczNoE0SNVf88LA,0,Diners,0.0,0.0290682,-51.0774956,,R. Roberto Ferreira da Silva 519,Macapá,68901-340,BR,AP,559632423118.0,+55 96 3242-3118,8374.3855281305
0154,1CjVsRrRKuACdCc_-tijyg,mister-x-macapá,Mister X,,False,https://www.yelp.com/biz/mister-x-macap%C3%A1?adjust_creative=CBM7ZjWiczNoE0SNVf88LA&utm_campaign=yelp_api_v3&utm_medium=api_v3_business_search&utm_source=CBM7ZjWiczNoE0SNVf88LA,0,Diners,0.0,0.038333,-51.0545349,,R. General Rondon 1536 A,Macapá,68900-082,BR,AP,559632238424.0,+55 96 3223-8424,8497.752322407337
0155,foKynLB-3e__8noEwhxErw,bizzum-da-pizza-macapá,Bizzum da Pizza,,False,https://www.yelp.com/biz/bizzum-da-pizza-macap%C3%A1?adjust_creative=CBM7ZjWiczNoE0SNVf88LA&utm_campaign=yelp_api_v3&utm_medium=api_v3_business_search&utm_source=CBM7ZjWiczNoE0SNVf88LA,0,Pizza,0.0,0.0490778,-51.0608139,,R. Leopoldo Machado 737 lj A,Macapá,68908-120,BR,AP,559632224171.0,+55 96 3222-4171,7113.228278858214
0156,TusrvZL8gq_KntQar5_INA,status-buffet-macapá,Status Buffet,,False,https://www.yelp.com/biz/status-buffet-macap%C3%A1?adjust_creative=CBM7ZjWiczNoE0SNVf88LA&utm_campaign=yelp_api_v3&utm_medium=api_v3_business_search&utm_source=CBM7ZjWiczNoE0SNVf88LA,0,Buffets,0.0,0.0241505,-51.0572205,,R. Eliézer Levy 51,Macapá,68908-183,BR,AP,559632236469.0,+55 96 3223-6469,9708.761157935363
0157,RG97U3tWDarEe56BdUXpsQ,lanchonete-a-moderninha-macapá,Lanchonete A Moderninha,,False,https://www.yelp.com/biz/lanchonete-a-moderninha-macap%C3%A1?adjust_creative=CBM7ZjWiczNoE0SNVf88LA&utm_campaign=yelp_api_v3&utm_medium=api_v3_business_search&utm_source=CBM7ZjWiczNoE0SNVf88LA,0,Diners,0.0,0.0362671,-51.0504494,,R. Cândido Mendes 985,Macapá,68900-100,BR,AP,559632227698.0,+55 96 3222-7698,8964.221147337796
0158,hNuTEse8kdfYWnP8l_INDw,esquina-grill-macapá,Esquina Grill,,False,https://www.yelp.com/biz/esquina-grill-macap%C3%A1?adjust_creative=CBM7ZjWiczNoE0SNVf88LA&utm_campaign=yelp_api_v3&utm_medium=api_v3_business_search&utm_source=CBM7ZjWiczNoE0SNVf88LA,0,Buffets,0.0,0.010225,-51.0745964,,Av. 25 de Julho 1030,Macapá,68904-640,BR,AP,559632423644.0,+55 96 3242-3644,10552.316243328492
0159,UmJFuQ5xtY0RRMUeXFb5lg,tuti-frutti-macapá,Tuti Frutti,,False,https://www.yelp.com/biz/tuti-frutti-macap%C3%A1?adjust_creative=CBM7ZjWiczNoE0SNVf88LA&utm_campaign=yelp_api_v3&utm_medium=api_v3_business_search&utm_source=CBM7ZjWiczNoE0SNVf88LA,0,Diners,0.0,0.0488303,-51.0425339,,R. Beira Rio 118,Macapá,68900-001,BR,AP,559632253360.0,+55 96 3225-3360,9604.54606453136
0160,q-eDOh-YzGLOmig0bQ6-nw,cia-paulista-de-pizza-macapá,Cia Paulista de Pizza,,False,https://www.yelp.com/biz/cia-paulista-de-pizza-macap%C3%A1?adjust_creative=CBM7ZjWiczNoE0SNVf88LA&utm_campaign=yelp_api_v3&utm_medium=api_v3_business_search&utm_source=CBM7ZjWiczNoE0SNVf88LA,0,Pizza,0.0,0.0409931,-51.0526466,,"R. Tiradentes, 226",Macapá,68900-098,BR,AP,559632239595.0,+55 96 3223-9595,8385.830941443557
0161,VxPdZbduxsctXH5kwn2ULA,pizzamille-macapá,Pizzamille,,False,https://www.yelp.com/biz/pizzamille-macap%C3%A1?adjust_creative=CBM7ZjWiczNoE0SNVf88LA&utm_campaign=yelp_api_v3&utm_medium=api_v3_business_search&utm_source=CBM7ZjWiczNoE0SNVf88LA,0,Pizza,0.0,0.0349089,-51.0622177,,"R. Leopoldo Machado, 2334",Macapá,68901-971,BR,AP,559632225375.0,+55 96 3222-5375,8385.392532492257
0162,I1rdeK8wqKv-SiIGftxWrg,casa-da-pizza-macapá,Casa da Pizza,,False,https://www.yelp.com/biz/casa-da-pizza-macap%C3%A1?adjust_creative=CBM7ZjWiczNoE0SNVf88LA&utm_campaign=yelp_api_v3&utm_medium=api_v3_business_search&utm_source=CBM7ZjWiczNoE0SNVf88LA,0,Pizza,0.0,0.0387991,-51.0539856,,Av. Coriolano Jucá 66,Macapá,68900-101,BR,AP,559632251212.0,+55 96 3225-1212,8476.819083079712
0163,FlBxBvNZrnFj1cXSUEWFzA,moita-tejo-supermercados-moita,Moita Tejo - Supermercados,,False,https://www.yelp.com/biz/moita-tejo-supermercados-moita?adjust_creative=CBM7ZjWiczNoE0SNVf88LA&utm_campaign=yelp_api_v3&utm_medium=api_v3_business_search&utm_source=CBM7ZjWiczNoE0SNVf88LA,0,"Grocery, Restaurants",0.0,38.6454544067383,-8.99084186553955,,Qta. Sta. Rosa,Moita,2860-145,PT,15,351212899590.0,+351 21 289 9590,7956.524371699223
0164,m_bFtYLUSP1G5zhIjGHI3w,fornão-express-macapá,Fornão Express,,False,https://www.yelp.com/biz/forn%C3%A3o-express-macap%C3%A1?adjust_creative=CBM7ZjWiczNoE0SNVf88LA&utm_campaign=yelp_api_v3&utm_medium=api_v3_business_search&utm_source=CBM7ZjWiczNoE0SNVf88LA,0,Pizza,0.0,0.0312763,-51.0570564,,Av. Henrique Galúcio 2447,Macapá,68901-255,BR,AP,559632237333.0,+55 96 3223-7333,9031.347201971144
0165,h4tRmys2Jsz9-Kvtuw023w,restaurante-pizzaria-plutão-macapá,Restaurante Pizzaria Plutão,,False,https://www.yelp.com/biz/restaurante-pizzaria-plut%C3%A3o-macap%C3%A1?adjust_creative=CBM7ZjWiczNoE0SNVf88LA&utm_campaign=yelp_api_v3&utm_medium=api_v3_business_search&utm_source=CBM7ZjWiczNoE0SNVf88LA,0,Pizza,0.0,0.0219486,-51.0660591,,Av. Pedro Lazarino 1308,Macapá,68902-862,BR,AP,559632423664.0,+55 96 3242-3664,9510.878554205006
0166,zi3UiOiw-yny0Pt3qDABNg,pizzaria-buona-pizza-macapá,Pizzaria Buona Pizza,,False,https://www.yelp.com/biz/pizzaria-buona-pizza-macap%C3%A1?adjust_creative=CBM7ZjWiczNoE0SNVf88LA&utm_campaign=yelp_api_v3&utm_medium=api_v3_business_search&utm_source=CBM7ZjWiczNoE0SNVf88LA,0,Pizza,0.0,0.0228096,-51.0609703,,R. Jovino Dinoá 3486 c,Macapá,68902-030,BR,AP,559632251354.0,+55 96 3225-1354,9659.977556315407
0167,F_HEqmbX7EIteDorWmgNGQ,churrascaria-búfalo-manaus,Churrascaria Búfalo,https://s3-media4.fl.yelpcdn.com/bphoto/yN7J4uckSwDT4hmIs1q1Rg/o.jpg,False,https://www.yelp.com/biz/churrascaria-b%C3%BAfalo-manaus?adjust_creative=CBM7ZjWiczNoE0SNVf88LA&utm_campaign=yelp_api_v3&utm_medium=api_v3_business_search&utm_source=CBM7ZjWiczNoE0SNVf88LA,4,Steakhouses,4.5,-3.1085638,-60.0222462,$$$,Rua Pará 491,Manaus,69053-575,BR,AM,559232329011.0,+55 92 3232-9011,9363.007575630185
0168,7Tf0kixZRGHxI4i4R9ar6g,caxiri-manaus,Caxiri,https://s3-media2.fl.yelpcdn.com/bphoto/PvRP7ehyWFs9ZlW3UfT7QA/o.jpg,False,https://www.yelp.com/biz/caxiri-manaus?adjust_creative=CBM7ZjWiczNoE0SNVf88LA&utm_campaign=yelp_api_v3&utm_medium=api_v3_business_search&utm_source=CBM7ZjWiczNoE0SNVf88LA,3,Brazilian,5.0,-3.129756,-60.023111,,"R. 10 de Julho, 945",Manaus,69010-060,BR,AM,559233048700.0,+55 92 3304-8700,11311.901875546278
0169,WnCe9lEUBocFv-JHFPzY6w,tambaqui-de-banda-manaus,Tambaqui de Banda,https://s3-media1.fl.yelpcdn.com/bphoto/gKpDe2BJwzfLed6q4rE81g/o.jpg,False,https://www.yelp.com/biz/tambaqui-de-banda-manaus?adjust_creative=CBM7ZjWiczNoE0SNVf88LA&utm_campaign=yelp_api_v3&utm_medium=api_v3_business_search&utm_source=CBM7ZjWiczNoE0SNVf88LA,10,Brazilian,4.0,-3.077064,-60.00834,$$,"Av. Tancredo Neves, 9",Manaus,69054-040,BR,AM,559232365995.0,+55 92 3236-5995,5801.591499554578
0170,raRQj5S42SerQYK17TOksg,restaurante-tempero-manaus,Restaurante Tempero,https://s3-media4.fl.yelpcdn.com/bphoto/DfGQ71_Mm4BcK1mFap9Pvg/o.jpg,False,https://www.yelp.com/biz/restaurante-tempero-manaus?adjust_creative=CBM7ZjWiczNoE0SNVf88LA&utm_campaign=yelp_api_v3&utm_medium=api_v3_business_search&utm_source=CBM7ZjWiczNoE0SNVf88LA,2,Restaurants,5.0,-3.1296255,-60.0204315,,Av Getúlio Vargas 715,Manaus,69020-010,BR,AM,559236333957.0,+55 92 3633-3957,11139.969192209615
0171,AR0awgks6rrEdQNnEY6nkQ,banzeiro-manaus,Banzeiro,https://s3-media3.fl.yelpcdn.com/bphoto/evJgQwsAlLh-ICz0Kb_sYA/o.jpg,False,https://www.yelp.com/biz/banzeiro-manaus?adjust_creative=CBM7ZjWiczNoE0SNVf88LA&utm_campaign=yelp_api_v3&utm_medium=api_v3_business_search&utm_source=CBM7ZjWiczNoE0SNVf88LA,16,Brazilian,4.0,-3.112315,-60.01693,$$$,"R. Libertador, 102",Manaus,69053-090,BR,AM,559232341621.0,+55 92 3234-1621,9324.891461417445
0172,HlrhUgmY22tfnhP2jBO6mA,la-parrilla-manaus,La Parrilla,https://s3-media1.fl.yelpcdn.com/bphoto/zawXhxfCJiGgBwCwB8cR7A/o.jpg,False,https://www.yelp.com/biz/la-parrilla-manaus?adjust_creative=CBM7ZjWiczNoE0SNVf88LA&utm_campaign=yelp_api_v3&utm_medium=api_v3_business_search&utm_source=CBM7ZjWiczNoE0SNVf88LA,2,"Steakhouses, Argentine",4.5,-3.07410995732687,-60.0300643577568,,"Av. Desembargador João Machado, 63",Manaus,69000000,BR,AM,559236542777.0,+55 92 3654-2777,7686.529759278953
0173,S7-1b8TdwTJPEGkuzCJwzw,choupana-restaurante-manaus,Choupana Restaurante,https://s3-media4.fl.yelpcdn.com/bphoto/1qYR5J1YzXnNFnM8Jn5s1g/o.jpg,False,https://www.yelp.com/biz/choupana-restaurante-manaus?adjust_creative=CBM7ZjWiczNoE0SNVf88LA&utm_campaign=yelp_api_v3&utm_medium=api_v3_business_search&utm_source=CBM7ZjWiczNoE0SNVf88LA,5,Restaurants,4.0,-3.0116401,-59.9484406,$$$,R. Recife 790,Manaus,69000-001,BR,AM,559236353878.0,+55 92 3635-3878,8693.228465116354
0174,fc74LOgzbUEfdloXla9B6Q,barollo-manaus,Barollo,https://s3-media3.fl.yelpcdn.com/bphoto/YbPbco9OdmbLfmZpQeOlgQ/o.jpg,False,https://www.yelp.com/biz/barollo-manaus?adjust_creative=CBM7ZjWiczNoE0SNVf88LA&utm_campaign=yelp_api_v3&utm_medium=api_v3_business_search&utm_source=CBM7ZjWiczNoE0SNVf88LA,1,"Wine Bars, Steakhouses",5.0,-3.104328,-60.023616,,"R. Rio Ituxi, 290",Manaus,69053-530,BR,AM,559230838149.0,+55 92 3083-8149,9113.247252657253
0175,FXqeLzgO9UcgRIayMM1k2A,amazônico-manaus-2,Amazônico,https://s3-media3.fl.yelpcdn.com/bphoto/7jUzjT_uKNzer2RveP5-LQ/o.jpg,False,https://www.yelp.com/biz/amaz%C3%B4nico-manaus-2?adjust_creative=CBM7ZjWiczNoE0SNVf88LA&utm_campaign=yelp_api_v3&utm_medium=api_v3_business_search&utm_source=CBM7ZjWiczNoE0SNVf88LA,9,"Seafood, Brazilian",3.5,-3.09202285443212,-60.0197462691678,$$$,"Av. Darcy Vargas, 226",Manaus,69030-060,BR,AM,559232360546.0,+55 92 3236-0546,7845.646531779996
0176,jQhZHhhAR4DguP2rotauMw,galo-carijó-restaurante-manaus,Galo Carijó Restaurante,,False,https://www.yelp.com/biz/galo-carij%C3%B3-restaurante-manaus?adjust_creative=CBM7ZjWiczNoE0SNVf88LA&utm_campaign=yelp_api_v3&utm_medium=api_v3_business_search&utm_source=CBM7ZjWiczNoE0SNVf88LA,1,Restaurants,5.0,-3.1395156,-60.0198402,,R. dos Andradas 536,Manaus,69005-180,BR,AM,559232330044.0,+55 92 3233-0044,12034.26588938491
0177,iNpalvVhWRehsQTUISBM1g,himawari-restaurante-manaus,Himawari Restaurante,https://s3-media4.fl.yelpcdn.com/bphoto/EoDFxcBsgwKEa3T9BI2ecA/o.jpg,False,https://www.yelp.com/biz/himawari-restaurante-manaus?adjust_creative=CBM7ZjWiczNoE0SNVf88LA&utm_campaign=yelp_api_v3&utm_medium=api_v3_business_search&utm_source=CBM7ZjWiczNoE0SNVf88LA,2,Restaurants,4.0,-3.1297951,-60.0225716,,R. 10 de Julho 618,Manaus,69010-060,BR,AM,559232332208.0,+55 92 3233-2208,11212.050643117123
0178,lOyUtumDWeopbZ_ynGRXSQ,trattoria-da-margo-manaus,Trattoria da Margo,,False,https://www.yelp.com/biz/trattoria-da-margo-manaus?adjust_creative=CBM7ZjWiczNoE0SNVf88LA&utm_campaign=yelp_api_v3&utm_medium=api_v3_business_search&utm_source=CBM7ZjWiczNoE0SNVf88LA,2,Restaurants,4.5,-3.0784,-59.99379,,Rua 3 1 qd 2,Manaus,69067-130,BR,AM,559236461516.0,+55 92 3646-1516,4766.013227473324
0179,Km1Tol_8ruJiCMo4KQtBzA,naia-manaus,Naia,https://s3-media1.fl.yelpcdn.com/bphoto/6HJNe1pI1kaeBmlNrGGjXA/o.jpg,False,https://www.yelp.com/biz/naia-manaus?adjust_creative=CBM7ZjWiczNoE0SNVf88LA&utm_campaign=yelp_api_v3&utm_medium=api_v3_business_search&utm_source=CBM7ZjWiczNoE0SNVf88LA,3,"Bars, Brazilian",3.5,-3.12357562901744,-59.982107721145,$$,Hotel Holiday Inn,Manaus,69080-970,BR,AM,559231820154.0,+55 92 3182-0154,8939.339872381703
0180,aidKE--X2SkU2yyswumzTQ,galeria-cristal-manaus,Galeria Cristal,https://s3-media4.fl.yelpcdn.com/bphoto/rcPhGDzqOg44f1ko-Iioug/o.jpg,False,https://www.yelp.com/biz/galeria-cristal-manaus?adjust_creative=CBM7ZjWiczNoE0SNVf88LA&utm_campaign=yelp_api_v3&utm_medium=api_v3_business_search&utm_source=CBM7ZjWiczNoE0SNVf88LA,1,Food Court,5.0,-3.104064,-60.010105,,"Av. Humberto Calderaro Filho, 455",Manaus,69057-002,BR,AM,559236110440.0,+55 92 3611-0440,8137.482500101843
0181,f1m3V8eQtf6cNWRVu-Kuvw,tambaqui-de-banda-manaus-2,Tambaqui de Banda,https://s3-media1.fl.yelpcdn.com/bphoto/dlywYna-3wLrM-Ma3UJZsg/o.jpg,False,https://www.yelp.com/biz/tambaqui-de-banda-manaus-2?adjust_creative=CBM7ZjWiczNoE0SNVf88LA&utm_campaign=yelp_api_v3&utm_medium=api_v3_business_search&utm_source=CBM7ZjWiczNoE0SNVf88LA,2,Brazilian,4.5,-3.13085,-60.022821,,"R. José Clemente, 596",Manaus,69010-070,BR,AM,559236228162.0,+55 92 3622-8162,11396.635835424826
0182,w4so6Et9wu--Srpel3sh6g,peixaria-morada-do-peixe-manaus,Peixaria Morada do Peixe,https://s3-media2.fl.yelpcdn.com/bphoto/C9KFxtlrumH7FVlPqQ6CMQ/o.jpg,False,https://www.yelp.com/biz/peixaria-morada-do-peixe-manaus?adjust_creative=CBM7ZjWiczNoE0SNVf88LA&utm_campaign=yelp_api_v3&utm_medium=api_v3_business_search&utm_source=CBM7ZjWiczNoE0SNVf88LA,1,"Brazilian, Seafood",4.0,-3.056541,-60.055365,,"R. Goiania, s/n",Manaus,69015-120,BR,AM,559236549650.0,+55 92 3654-9650,9847.082863434263
0183,vJOowAjfQcHh31Wg409zfA,fitz-carraldo-bistrô-manaus,Fitz Carraldo Bistrô,https://s3-media3.fl.yelpcdn.com/bphoto/BC6FQGI3bDBzpB6pONjgeA/o.jpg,False,https://www.yelp.com/biz/fitz-carraldo-bistr%C3%B4-manaus?adjust_creative=CBM7ZjWiczNoE0SNVf88LA&utm_campaign=yelp_api_v3&utm_medium=api_v3_business_search&utm_source=CBM7ZjWiczNoE0SNVf88LA,2,Bistros,4.5,-3.129563,-60.024705,,"R. 10 de Julho, 315",Manaus,69036-060,BR,AM,559233477832.0,+55 92 3347-7832,11391.647454582497
0184,XZf0BVgRPJ5QO1fq4Hla4A,belle-époque-manaus,Belle Époque,https://s3-media3.fl.yelpcdn.com/bphoto/LzTU9HLtTAtDTsJKGJbNzQ/o.jpg,False,https://www.yelp.com/biz/belle-%C3%A9poque-manaus?adjust_creative=CBM7ZjWiczNoE0SNVf88LA&utm_campaign=yelp_api_v3&utm_medium=api_v3_business_search&utm_source=CBM7ZjWiczNoE0SNVf88LA,1,French,5.0,-3.10535,-60.01935,,"R. Acre, 95",Manaus,69037-000,BR,AM,559230167898.0,+55 92 3016-7898,8876.863243923617
0185,SO-8dI0Vi5R1jiid9nS38w,shin-suzuran-mogi-das-cruzes,Shin Suzuran,,False,https://www.yelp.com/biz/shin-suzuran-mogi-das-cruzes?adjust_creative=CBM7ZjWiczNoE0SNVf88LA&utm_campaign=yelp_api_v3&utm_medium=api_v3_business_search&utm_source=CBM7ZjWiczNoE0SNVf88LA,1,Japanese,5.0,-3.10753211426156,-60.0188017264009,,"Av. João Valério, 762",Mogi das Cruzes,69053-140,BR,SP,559235844429.0,+55 92 3584-4429,9030.061518046854
0186,qFlMGrkFV64LnOdNK-fEGw,cachaçaria-do-dedé-manaus-3,Cachaçaria do Dedé,https://s3-media3.fl.yelpcdn.com/bphoto/up4vUiUUCuupkKEk5tOqpA/o.jpg,False,https://www.yelp.com/biz/cacha%C3%A7aria-do-ded%C3%A9-manaus-3?adjust_creative=CBM7ZjWiczNoE0SNVf88LA&utm_campaign=yelp_api_v3&utm_medium=api_v3_business_search&utm_source=CBM7ZjWiczNoE0SNVf88LA,1,"Bars, Brazilian",4.0,-3.1039808,-60.0134607,,Manauara Shopping,Manaus,69057-002,BR,AM,559232366642.0,+55 92 3236-6642,8274.207524571735
0187,xT_LhPmZA01pCR6U5R4AIw,casa-da-pamonha-manaus,Casa da Pamonha,https://s3-media3.fl.yelpcdn.com/bphoto/47cUvZKixXSRcUXzb7WjeA/o.jpg,False,https://www.yelp.com/biz/casa-da-pamonha-manaus?adjust_creative=CBM7ZjWiczNoE0SNVf88LA&utm_campaign=yelp_api_v3&utm_medium=api_v3_business_search&utm_source=CBM7ZjWiczNoE0SNVf88LA,1,Diners,4.0,-3.1323609,-60.0233513,,"R. Barroso, 375",Manaus,69010-050,BR,AM,559232347086.0,+55 92 3234-7086,11465.428677544733
0188,RZUJQd14uyXRNX_oXV2GRw,scarola-pizzaria-manaus,Scarola Pizzaria,,False,https://www.yelp.com/biz/scarola-pizzaria-manaus?adjust_creative=CBM7ZjWiczNoE0SNVf88LA&utm_campaign=yelp_api_v3&utm_medium=api_v3_business_search&utm_source=CBM7ZjWiczNoE0SNVf88LA,2,Pizza,4.5,-3.1298151,-60.0208549,$,R. 10 de Julho 739,Manaus,69010-060,BR,AM,559232348542.0,+55 92 3234-8542,11146.341024935457
0189,DPPvfQsnoC3njITF7IZiEQ,samauma-manaus,Samauma,,False,https://www.yelp.com/biz/samauma-manaus?adjust_creative=CBM7ZjWiczNoE0SNVf88LA&utm_campaign=yelp_api_v3&utm_medium=api_v3_business_search&utm_source=CBM7ZjWiczNoE0SNVf88LA,1,Restaurants,4.0,-3.1282866,-60.0325737,,R. 10 de Julho 203,Manaus,69010-060,BR,AM,559232324667.0,+55 92 3232-4667,11415.263664074426
0190,-Z6E5P2p0OKQ76nmhaN-nQ,restaurante-alentejo-manaus,Restaurante Alentejo,https://s3-media2.fl.yelpcdn.com/bphoto/49oTSPmi5atK_T9r5gGeaQ/o.jpg,False,https://www.yelp.com/biz/restaurante-alentejo-manaus?adjust_creative=CBM7ZjWiczNoE0SNVf88LA&utm_campaign=yelp_api_v3&utm_medium=api_v3_business_search&utm_source=CBM7ZjWiczNoE0SNVf88LA,1,Restaurants,4.0,-3.1079259,-60.0256233,,R. Pará 555,Manaus,69053-070,BR,AM,559232337300.0,+55 92 3233-7300,9328.207620511172
0191,TOJnyKK6YKVAnBNh3XmlZw,churrascaria-gauchos-manaus,Churrascaria Gaucho's,https://s3-media4.fl.yelpcdn.com/bphoto/_6aARFz-1N9KXMhcVVJTGw/o.jpg,False,https://www.yelp.com/biz/churrascaria-gauchos-manaus?adjust_creative=CBM7ZjWiczNoE0SNVf88LA&utm_campaign=yelp_api_v3&utm_medium=api_v3_business_search&utm_source=CBM7ZjWiczNoE0SNVf88LA,2,Steakhouses,2.5,-3.1125672,-60.0111694,,R. Terezina 568,Manaus,69057-070,BR,AM,559232332908.0,+55 92 3233-2908,8974.784030794854
0192,qr7qAKR-KKi9Lx3z-oZ2mQ,restaurante-canto-do-pará-manaus,Restaurante Canto do Pará,https://s3-media1.fl.yelpcdn.com/bphoto/vBw7Sjqop7RigLmsJMblhA/o.jpg,False,https://www.yelp.com/biz/restaurante-canto-do-par%C3%A1-manaus?adjust_creative=CBM7ZjWiczNoE0SNVf88LA&utm_campaign=yelp_api_v3&utm_medium=api_v3_business_search&utm_source=CBM7ZjWiczNoE0SNVf88LA,1,Restaurants,5.0,-3.06861,-60.0540199,,Av. Amsterdam 3 qd 15,Manaus,69045-010,BR,AM,559236565429.0,+55 92 3656-5429,10060.312283954716
0193,3Q1RZrl_cz0NRHVmsjWm-g,domus-enogastronomia-manaus,Domus Enogastronomia,https://s3-media3.fl.yelpcdn.com/bphoto/AALnh1QKcWsl1s6M9wn1vg/o.jpg,False,https://www.yelp.com/biz/domus-enogastronomia-manaus?adjust_creative=CBM7ZjWiczNoE0SNVf88LA&utm_campaign=yelp_api_v3&utm_medium=api_v3_business_search&utm_source=CBM7ZjWiczNoE0SNVf88LA,1,Restaurants,5.0,-3.1033399,-60.0203514,,Av. Rio Madeira 128 qd 64,Manaus,69053-030,BR,AM,559235841065.0,+55 92 3584-1065,8420.971325538587
0194,z1FdcZayvhm2Ld-4Wj6_JA,tacacaria-amazônia-manaus,Tacacaria Amazônia,https://s3-media1.fl.yelpcdn.com/bphoto/ypdING1I_gvXKcpz8o5j_A/o.jpg,False,https://www.yelp.com/biz/tacacaria-amaz%C3%B4nia-manaus?adjust_creative=CBM7ZjWiczNoE0SNVf88LA&utm_campaign=yelp_api_v3&utm_medium=api_v3_business_search&utm_source=CBM7ZjWiczNoE0SNVf88LA,2,Brazilian,3.0,-3.12981571253672,-60.0230084359646,,"R. 10 de Julho, 503",Manaus,69010-060,BR,AM,5592984089197.0,+55 92 98408-9197,11311.257058407346
0195,2JtooiN66b_2M6-3B_aP8Q,bobs-airport-manaus,Bob's - Airport,https://s3-media1.fl.yelpcdn.com/bphoto/oLsI32v0J6KLMDMLDCMUpg/o.jpg,False,https://www.yelp.com/biz/bobs-airport-manaus?adjust_creative=CBM7ZjWiczNoE0SNVf88LA&utm_campaign=yelp_api_v3&utm_medium=api_v3_business_search&utm_source=CBM7ZjWiczNoE0SNVf88LA,1,Burgers,5.0,-3.0294288,-60.042371,,Av. Santos Dumont 2441,Manaus,69041-000,BR,AM,,,8480.742306381699
0196,wr4dHGXr5hkNdeiHCwaVWg,marisco-e-cia-manaus,Marisco & Cia,,False,https://www.yelp.com/biz/marisco-e-cia-manaus?adjust_creative=CBM7ZjWiczNoE0SNVf88LA&utm_campaign=yelp_api_v3&utm_medium=api_v3_business_search&utm_source=CBM7ZjWiczNoE0SNVf88LA,1,Seafood,4.0,-3.0940707,-60.0115814,,R. Pará 185,Manaus,69053-575,BR,AM,559235843350.0,+55 92 3584-3350,7382.04456497326
0197,B83StqoF-i7M1cGt-LfI7A,porão-do-alemão-manaus,Porão do Alemão,https://s3-media1.fl.yelpcdn.com/bphoto/S9Gk1gtqoibRzR5EjxazSg/o.jpg,False,https://www.yelp.com/biz/por%C3%A3o-do-alem%C3%A3o-manaus?adjust_creative=CBM7ZjWiczNoE0SNVf88LA&utm_campaign=yelp_api_v3&utm_medium=api_v3_business_search&utm_source=CBM7ZjWiczNoE0SNVf88LA,2,Restaurants,3.5,-3.0722599,-60.0887489,,Bc Ponta Negra 1986,Manaus,69033-012,BR,AM,559232392976.0,+55 92 3239-2976,10692.050127966246
0198,m9CeKjo1FhFn5Xhk6N6pAw,casa-da-sopa-manaus,Casa da Sopa,,False,https://www.yelp.com/biz/casa-da-sopa-manaus?adjust_creative=CBM7ZjWiczNoE0SNVf88LA&utm_campaign=yelp_api_v3&utm_medium=api_v3_business_search&utm_source=CBM7ZjWiczNoE0SNVf88LA,1,Restaurants,5.0,-3.0970185,-59.9961205,,Av. Constelação 22,Manaus,69000-001,BR,AM,559236488667.0,+55 92 3648-8667,6813.058919072076
0199,o2umlUMjcX3nUmbno4YdZQ,precioska-manaus,Precioska,https://s3-media1.fl.yelpcdn.com/bphoto/R-MkZbkwOJwuOoMNkpnkvQ/o.jpg,False,https://www.yelp.com/biz/precioska-manaus?adjust_creative=CBM7ZjWiczNoE0SNVf88LA&utm_campaign=yelp_api_v3&utm_medium=api_v3_business_search&utm_source=CBM7ZjWiczNoE0SNVf88LA,1,Modern European,5.0,-3.10877215021283,-60.0172467157245,,"Av. Rio Jamary, 28",Manaus,69053-560,BR,AM,5592991325365.0,+55 92 99132-5365,9030.850408904194
0200,iIapfQ0b1hSurrnLo09mDQ,café-do-ponto-manaus-3,Café Do Ponto,https://s3-media1.fl.yelpcdn.com/bphoto/_aepaDSRzCdnlKZjpWGSiQ/o.jpg,False,https://www.yelp.com/biz/caf%C3%A9-do-ponto-manaus-3?adjust_creative=CBM7ZjWiczNoE0SNVf88LA&utm_campaign=yelp_api_v3&utm_medium=api_v3_business_search&utm_source=CBM7ZjWiczNoE0SNVf88LA,1,"Cafes, Coffee & Tea",4.0,-3.1039792,-60.0134609,,Centro Comercial Manauara,Manaus,69058-775,BR,AM,558007077442.0,+55 800 707 7442,8274.207524571735
0201,2IIy2fRoIPcB-6V0XHS4SA,felicori-gastronomia-manaus,Felicori Gastronomia,https://s3-media2.fl.yelpcdn.com/bphoto/Mj-F5sZedv6z3PHAdOHQJg/o.jpg,False,https://www.yelp.com/biz/felicori-gastronomia-manaus?adjust_creative=CBM7ZjWiczNoE0SNVf88LA&utm_campaign=yelp_api_v3&utm_medium=api_v3_business_search&utm_source=CBM7ZjWiczNoE0SNVf88LA,1,"Italian, Brazilian",4.0,-3.10927,-60.01217,,"R. Natal, 191",Manaus,69057-090,BR,AM,5592993033020.0,+55 92 99303-3020,8735.784014565608
0202,WwiDP-dJQ6wdA3KheBlKhQ,splash-pizza-manaus-3,Splash Pizza,https://s3-media3.fl.yelpcdn.com/bphoto/99IACoZRP5eshCcQgJdbQw/o.jpg,False,https://www.yelp.com/biz/splash-pizza-manaus-3?adjust_creative=CBM7ZjWiczNoE0SNVf88LA&utm_campaign=yelp_api_v3&utm_medium=api_v3_business_search&utm_source=CBM7ZjWiczNoE0SNVf88LA,3,Pizza,2.0,-3.130926773726,-60.0237251429239,$,"R. José Clemente, 500",Manaus,69010-070,BR,AM,559236331111.0,+55 92 3633-1111,11458.209575065965
0203,_RiWB1jkvcJKVi85RUTd-Q,totellinis-manaus,Totellinis,,False,https://www.yelp.com/biz/totellinis-manaus?adjust_creative=CBM7ZjWiczNoE0SNVf88LA&utm_campaign=yelp_api_v3&utm_medium=api_v3_business_search&utm_source=CBM7ZjWiczNoE0SNVf88LA,1,Italian,4.0,-3.1190275,-60.0217314,,"R. Recife, 1005",Manaus,69029-520,BR,AM,559232347402.0,+55 92 3234-7402,10242.082908332672
0204,conbMrV0fiHGpVo5YllE9w,lanche-do-márcio-manaus,Lanche do Márcio,,False,https://www.yelp.com/biz/lanche-do-m%C3%A1rcio-manaus?adjust_creative=CBM7ZjWiczNoE0SNVf88LA&utm_campaign=yelp_api_v3&utm_medium=api_v3_business_search&utm_source=CBM7ZjWiczNoE0SNVf88LA,1,Diners,4.0,-3.0140164,-60.000885,,Av. Liberdade 395,Manaus,69036-600,BR,AM,559236562799.0,+55 92 3656-2799,11865.833395261649
0205,ALZh71tTu5zXwaPAZ2B7Gg,peixaria-poraque-campos-elisios-manaus,Peixaria Poraque-Campos Elisios,,False,https://www.yelp.com/biz/peixaria-poraque-campos-elisios-manaus?adjust_creative=CBM7ZjWiczNoE0SNVf88LA&utm_campaign=yelp_api_v3&utm_medium=api_v3_business_search&utm_source=CBM7ZjWiczNoE0SNVf88LA,1,Restaurants,1.0,-3.062978,-60.0471793,,Rua Santiago 17,Manaus,69045-550,BR,AM,559236568985.0,+55 92 3656-8985,9081.992545786248
0206,DBWRxKKcreVBfQTiD8At7g,restaurante-canto-da-peixada-manaus,Restaurante Canto da Peixada,,False,https://www.yelp.com/biz/restaurante-canto-da-peixada-manaus?adjust_creative=CBM7ZjWiczNoE0SNVf88LA&utm_campaign=yelp_api_v3&utm_medium=api_v3_business_search&utm_source=CBM7ZjWiczNoE0SNVf88LA,2,Restaurants,2.5,-3.130784,-60.0154564,$$$,Rua Emílio Moreira 1677,Manaus,69020-040,BR,AM,559232341066.0,+55 92 3234-1066,10971.152409558406
0207,8h6zbqamBClvmlNiEKKqgA,caboco-café-manaus,Caboco Café,https://s3-media2.fl.yelpcdn.com/bphoto/jmyp76VJVwZpY322fjyTTg/o.jpg,False,https://www.yelp.com/biz/caboco-caf%C3%A9-manaus?adjust_creative=CBM7ZjWiczNoE0SNVf88LA&utm_campaign=yelp_api_v3&utm_medium=api_v3_business_search&utm_source=CBM7ZjWiczNoE0SNVf88LA,1,Cafes,4.0,-3.10365,-60.02096,,"R. Rio Purús, 26",Manaus,69053-050,BR,AM,5592981363736.0,+55 92 98136-3736,8853.338304575354
0208,Mx6M5DAD6DoxjDWb-lYo0Q,lo-de-maria-manaus,Lo de Maria,https://s3-media3.fl.yelpcdn.com/bphoto/X24nYRTuvedVYpX_lPvAIg/o.jpg,False,https://www.yelp.com/biz/lo-de-maria-manaus?adjust_creative=CBM7ZjWiczNoE0SNVf88LA&utm_campaign=yelp_api_v3&utm_medium=api_v3_business_search&utm_source=CBM7ZjWiczNoE0SNVf88LA,1,Brazilian,1.0,-3.10539,-60.01907,,"R. Acre, 108",Manaus,69053-130,BR,AM,559233476349.0,+55 92 3347-6349,9132.084133660735
0209,WRwpu8bJod5pf80pkCIpQA,loppiano-pizza-manaus-2,Loppiano Pizza,,False,https://www.yelp.com/biz/loppiano-pizza-manaus-2?adjust_creative=CBM7ZjWiczNoE0SNVf88LA&utm_campaign=yelp_api_v3&utm_medium=api_v3_business_search&utm_source=CBM7ZjWiczNoE0SNVf88LA,1,Pizza,4.0,-3.1175449,-60.0168533,,Av. Ayrão 1070,Manaus,69025-005,BR,AM,559236224000.0,+55 92 3622-4000,9800.258748709382
0210,D0HJHnmFj84Ni3KJQoYvwg,restaurante-fiorentina-manaus-2,Restaurante Fiorentina,,False,https://www.yelp.com/biz/restaurante-fiorentina-manaus-2?adjust_creative=CBM7ZjWiczNoE0SNVf88LA&utm_campaign=yelp_api_v3&utm_medium=api_v3_business_search&utm_source=CBM7ZjWiczNoE0SNVf88LA,1,Restaurants,5.0,-3.1094401,-60.0236893,,Av. Djalma Batista 220,Manaus,69053-000,BR,AM,559232165240.0,+55 92 3216-5240,7267.0069877372
0211,IPawr9hVAJ7oAqpqd_L1BA,coliseu-pizza-manaus,Coliseu Pizza,,False,https://www.yelp.com/biz/coliseu-pizza-manaus?adjust_creative=CBM7ZjWiczNoE0SNVf88LA&utm_campaign=yelp_api_v3&utm_medium=api_v3_business_search&utm_source=CBM7ZjWiczNoE0SNVf88LA,1,Pizza,3.0,-3.0936058,-60.0095901,,R. Pará 438,Manaus,69053-070,BR,AM,559232348888.0,+55 92 3234-8888,7173.295130832733
0212,5_hY6Jv2hjETAm9r0CNUOA,rei-do-churrasco-manaus-2,Rei do Churrasco,,False,https://www.yelp.com/biz/rei-do-churrasco-manaus-2?adjust_creative=CBM7ZjWiczNoE0SNVf88LA&utm_campaign=yelp_api_v3&utm_medium=api_v3_business_search&utm_source=CBM7ZjWiczNoE0SNVf88LA,1,Steakhouses,2.0,-3.128202,-60.0078964,,"Av. Presidente Castelo Branco, 839",Manaus,69065-010,BR,AM,559233031313.0,+55 92 3303-1313,9896.549546352331
0213,vhL1AsJNkq0i70d9qvZf1g,pizzaria-morada-do-sol-manaus,Pizzaria Morada do Sol,,False,https://www.yelp.com/biz/pizzaria-morada-do-sol-manaus?adjust_creative=CBM7ZjWiczNoE0SNVf88LA&utm_campaign=yelp_api_v3&utm_medium=api_v3_business_search&utm_source=CBM7ZjWiczNoE0SNVf88LA,1,Italian,1.0,-3.0922152,-59.9886115,,Av Efigênio Sales 3050,Manaus,,BR,AM,559236486666.0,+55 92 3648-6666,5798.672517164042
0214,BffhEHKXytd9y1daD1qPGA,casa-de-tereza-salvador,Casa de Tereza,https://s3-media2.fl.yelpcdn.com/bphoto/GDh1Q4YzOL49VsjqWjZvUw/o.jpg,False,https://www.yelp.com/biz/casa-de-tereza-salvador?adjust_creative=CBM7ZjWiczNoE0SNVf88LA&utm_campaign=yelp_api_v3&utm_medium=api_v3_business_search&utm_source=CBM7ZjWiczNoE0SNVf88LA,24,Northern Brazilian,4.5,-13.01394,-38.48764,$$$$,"R. Odilon Santos, 45",Salvador,41940-350,BR,BA,557133293016.0,+55 71 3329-3016,6165.245713862178
0215,Chg0h14UF4fcmLf230Er6A,restaurante-paraíso-tropical-salvador-3,Restaurante Paraíso Tropical,https://s3-media3.fl.yelpcdn.com/bphoto/MJFpmud7hgDdCCRkCh-VVA/o.jpg,False,https://www.yelp.com/biz/restaurante-para%C3%ADso-tropical-salvador-3?adjust_creative=CBM7ZjWiczNoE0SNVf88LA&utm_campaign=yelp_api_v3&utm_medium=api_v3_business_search&utm_source=CBM7ZjWiczNoE0SNVf88LA,18,"Brazilian, Seafood",4.5,-12.960216,-38.46352,$$$,"R. Edgard Loureiro, 98",Salvador,40342-100,BR,BA,557133847464.0,+55 71 3384-7464,888.4100860825475
0216,8wBYA7bnVJzYP1Uxn_b6Zg,mistura-salvador-2,Mistura,https://s3-media1.fl.yelpcdn.com/bphoto/dkHNRL-p2AvvWaawDAA74Q/o.jpg,False,https://www.yelp.com/biz/mistura-salvador-2?adjust_creative=CBM7ZjWiczNoE0SNVf88LA&utm_campaign=yelp_api_v3&utm_medium=api_v3_business_search&utm_source=CBM7ZjWiczNoE0SNVf88LA,9,"Seafood, Brazilian, Mediterranean",4.5,-12.954527,-38.354919,$$$,"R. Prof. Souza Brito, 41",Salvador,41640-485,BR,BA,557133752623.0,+55 71 3375-2623,11283.144182981114
0217,ieyw9cf5XnE4qu2-0sFIrQ,cuco-bistrô-salvador,Cuco Bistrô,https://s3-media2.fl.yelpcdn.com/bphoto/bpznwdWYB4L3-IWYBPkuyQ/o.jpg,False,https://www.yelp.com/biz/cuco-bistr%C3%B4-salvador?adjust_creative=CBM7ZjWiczNoE0SNVf88LA&utm_campaign=yelp_api_v3&utm_medium=api_v3_business_search&utm_source=CBM7ZjWiczNoE0SNVf88LA,10,"Spanish, Brazilian, Bistros",4.5,-12.9737968,-38.5094528,$$$,"Largo do Cruzeiro de São Franscico, 6",Salvador,40020-280,BR,BA,557133224383.0,+55 71 3322-4383,5595.258887545027
0218,sKoAPKLHuVUhWjXI6lpXwQ,amado-salvador,Amado,https://s3-media2.fl.yelpcdn.com/bphoto/fviY4srDyK6T9dJw9x5htQ/o.jpg,False,https://www.yelp.com/biz/amado-salvador?adjust_creative=CBM7ZjWiczNoE0SNVf88LA&utm_campaign=yelp_api_v3&utm_medium=api_v3_business_search&utm_source=CBM7ZjWiczNoE0SNVf88LA,13,"Brazilian, Seafood, Mediterranean",4.0,-12.978486,-38.517276,$$$$,"Av. Lafayete Coutinho, 660",Salvador,40015-160,BR,BA,557133223520.0,+55 71 3322-3520,6527.251696139162
0219,s28n98BV68vIo_t5lDX5lg,maria-mata-mouro-salvador,Maria Mata Mouro,https://s3-media2.fl.yelpcdn.com/bphoto/1Iu6JBsGuFTSUlj9yTTGzw/o.jpg,False,https://www.yelp.com/biz/maria-mata-mouro-salvador?adjust_creative=CBM7ZjWiczNoE0SNVf88LA&utm_campaign=yelp_api_v3&utm_medium=api_v3_business_search&utm_source=CBM7ZjWiczNoE0SNVf88LA,12,"Brazilian, Seafood",4.0,-12.974108,-38.508694,$$$,"R. da Ordem Terceira, 8",Salvador,40026-260,BR,BA,557133213929.0,+55 71 3321-3929,5524.423808949122
0220,lG7tzFb7egY-3yeb5Ja4dA,bar-zulu-salvador,Bar Zulu,https://s3-media3.fl.yelpcdn.com/bphoto/vJfjxVSh28j1r1vN69rvGA/o.jpg,False,https://www.yelp.com/biz/bar-zulu-salvador?adjust_creative=CBM7ZjWiczNoE0SNVf88LA&utm_campaign=yelp_api_v3&utm_medium=api_v3_business_search&utm_source=CBM7ZjWiczNoE0SNVf88LA,5,"Bars, Tapas Bars",4.5,-12.9742131493768,-38.5082830488682,$$,"R. das Laranjeiras, 16",Salvador,40026-230,BR,BA,557187843208.0,+55 7187843208,5482.277274768092
0221,6DcNUcDPYs4ZhJrMEEG1cQ,chez-bernard-salvador,Chez Bernard,https://s3-media2.fl.yelpcdn.com/bphoto/8dh4f2R8U2o-IDIjeDzykA/o.jpg,False,https://www.yelp.com/biz/chez-bernard-salvador?adjust_creative=CBM7ZjWiczNoE0SNVf88LA&utm_campaign=yelp_api_v3&utm_medium=api_v3_business_search&utm_source=CBM7ZjWiczNoE0SNVf88LA,5,"French, Seafood",5.0,-12.9703817,-38.512382,$$$$,"R. Gamboa de Cima, 11",Salvador,40060-008,BR,BA,557133281566.0,+55 71 3328-1566,5873.905764584903
0222,pHafKz4hpQyKekGX-QdIVA,soho-salvador,Soho,https://s3-media2.fl.yelpcdn.com/bphoto/fw7dP6HNKBOv7nbsMrg9LA/o.jpg,False,https://www.yelp.com/biz/soho-salvador?adjust_creative=CBM7ZjWiczNoE0SNVf88LA&utm_campaign=yelp_api_v3&utm_medium=api_v3_business_search&utm_source=CBM7ZjWiczNoE0SNVf88LA,16,"Sushi Bars, Japanese, Asian Fusion",4.5,-12.9808045,-38.5188276,$$$,"Av. Contorno, 1010",Salvador,40060-070,BR,BA,557133224554.0,+55 71 3322-4554,6748.338874543998
0223,5097wczWLZRH0Gx0N8_QJw,parrilla-argentina-la-pulperia-salvador,Parrilla Argentina La Pulperia,https://s3-media3.fl.yelpcdn.com/bphoto/0bfLmLPk_lU66770IsMGaA/o.jpg,False,https://www.yelp.com/biz/parrilla-argentina-la-pulperia-salvador?adjust_creative=CBM7ZjWiczNoE0SNVf88LA&utm_campaign=yelp_api_v3&utm_medium=api_v3_business_search&utm_source=CBM7ZjWiczNoE0SNVf88LA,8,"Argentine, Steakhouses",5.0,-12.9912442559902,-38.493400882838,$$,"R. Novo Horizonte, 39",Salvador,41330-370,BR,BA,557130157379.0,+55 71 3015-7379,4698.292108807436
0224,joq-NfzfqJTr4PTviBnSOw,barbacoa-salvador-salvador,Barbacoa Salvador,https://s3-media2.fl.yelpcdn.com/bphoto/Fxj41TcI68F95wBLgj0cBQ/o.jpg,False,https://www.yelp.com/biz/barbacoa-salvador-salvador?adjust_creative=CBM7ZjWiczNoE0SNVf88LA&utm_campaign=yelp_api_v3&utm_medium=api_v3_business_search&utm_source=CBM7ZjWiczNoE0SNVf88LA,3,Restaurants,4.0,-12.9807396,-38.4654617,$$$$,Av. Tancredo Neves 909,Salvador,41820-021,BR,BA,557133424666.0,+55 71 3342-4666,1501.3591125870153
0225,6Bl79lp5ezDg5nQtn2aSUQ,mammas-house-salvador,Mamma's House,https://s3-media2.fl.yelpcdn.com/bphoto/nUIONue_kf_HmRf6tZCXOQ/o.jpg,False,https://www.yelp.com/biz/mammas-house-salvador?adjust_creative=CBM7ZjWiczNoE0SNVf88LA&utm_campaign=yelp_api_v3&utm_medium=api_v3_business_search&utm_source=CBM7ZjWiczNoE0SNVf88LA,8,"Pizza, Italian",5.0,-12.99363,-38.45603,$$,"R. das Margaridas,150",Salvador,41810-100,BR,BA,557133532600.0,+55 71 3353-2600,3021.5507560030355
0226,V-ubPnAkTeV71QDY4yshfA,cabana-da-cely-salvador-6,Cabana da Cely,https://s3-media1.fl.yelpcdn.com/bphoto/eSUfZ5CNAFEtu_N5jP0xEg/o.jpg,False,https://www.yelp.com/biz/cabana-da-cely-salvador-6?adjust_creative=CBM7ZjWiczNoE0SNVf88LA&utm_campaign=yelp_api_v3&utm_medium=api_v3_business_search&utm_source=CBM7ZjWiczNoE0SNVf88LA,5,Seafood,5.0,-13.0137501,-38.4859734,,"Rua Fonte do Boi, 32, Rio Vermelho",Salvador,,BR,BA,557130191304.0,+55 71 3019-1304,6046.387530644656
0227,WWFoDmNqCx9wX9OIOKWxCQ,il-póllo-grill-salvador,Il Póllo Grill,https://s3-media3.fl.yelpcdn.com/bphoto/hwP0pjqJU65YsXnw0KtUdA/o.jpg,False,https://www.yelp.com/biz/il-p%C3%B3llo-grill-salvador?adjust_creative=CBM7ZjWiczNoE0SNVf88LA&utm_campaign=yelp_api_v3&utm_medium=api_v3_business_search&utm_source=CBM7ZjWiczNoE0SNVf88LA,5,"Steakhouses, Brazilian",4.5,-12.9781802465918,-38.4556941041992,$$,"Avenida Tancredo Neves, 3133, L3",Salvador,41100-800,BR,BA,557134176000.0,+55 71 3417-6000,1340.681757663266
0228,xI11lyDipOFaco-c43VtLw,odoyá-salvador,Odoyá,https://s3-media4.fl.yelpcdn.com/bphoto/SftQsHamEJviiA-r501QYQ/o.jpg,False,https://www.yelp.com/biz/odoy%C3%A1-salvador?adjust_creative=CBM7ZjWiczNoE0SNVf88LA&utm_campaign=yelp_api_v3&utm_medium=api_v3_business_search&utm_source=CBM7ZjWiczNoE0SNVf88LA,10,"Seafood, Imported Food",4.0,-12.973877,-38.5097351,$$$,"Largo do Cruzeiro de São Francisco, 1 Pelourinho",Salvador,40020-280,BR,BA,557133227892.0,+55 71 3322-7892,5587.109690174452
